id,name,address,zip,latitude,longitude,star,review_count,cat1,cat2,cat3,cat4,cat5,cat6,cat7,cat8,cat9,cat10,cat11,cat12,cat13,cat14,cat15
4tzmCT04wTAbbiZFKo2cPQ,"Discount Tire Store - Las Vegas, NV",3830 Blue Diamond Rd,89139,36.0418002,-115.1906076,4.5,125,Wheel & Rim Repair,Automotive,Tires,Auto Parts & Supplies,,,,,,,,,,,
piGQNN6ECbSC0agHhvoVeg,Luxy Nail Salon,9310 S Eastern Ave,89123,36.01947464,-115.1173854,4,221,Beauty & Spas,Nail Salons,,,,,,,,,,,,,
gMUAn6xcuE-TbY1seFw_Ww,Presto Calzone Bakery,"7501 N Cimarron Rd, Ste 108",89131,36.29733,-115.270268,4.5,132,Desserts,Food,Pizza,Restaurants,Bakeries,,,,,,,,,,
3X7dy9FD3fQ8fQ-WBBzDMw,Freakin' Frog,4700 S Maryland Pkwy,89119,36.103953,-115.136215,4,165,Nightlife,Arts & Entertainment,Music Venues,Bars,Pubs,,,,,,,,,,
kJl3l4fSa2spv_Mkhgogmg,Ito'y Sariling Atin,"2620 S Maryland Pkwy, Ste 176",89109,36.14303557,-115.1370594,3.5,103,Filipino,Restaurants,,,,,,,,,,,,,
Pob7ibbNT29--69nxXEP2g,The Chandelier,"The Cosmopolitan Of Las Vegas, 3708 Las Vegas Blvd S",89109,36.11008368,-115.173179,4,904,Bars,Nightlife,Lounges,,,,,,,,,,,,
KaGZE0_o1EmmSN4Fo_cpUw,Public House,3900 Las Vegas Blvd S,89119,36.09541517,-115.1749703,3,198,Nightlife,Food,American (Traditional),Restaurants,Sports Bars,Burgers,Bars,Beer,Wine & Spirits,,,,,,
jpKWhKMWlOpTH14XW-NwQQ,Drai's Beach Club,"The Cromwell Las Vegas Resort & Casino, 3595 Las Vegas Boulevard South",89109,36.1149405,-115.1720257,3.5,174,Swimming Pools,Active Life,,,,,,,,,,,,,
_pBXtjN43eqMV0XZTz7nmw,Surrender Nightclub,3131 Las Vegas Blvd S,89109,36.12688413,-115.1670143,3.5,794,Dance Clubs,Nightlife,,,,,,,,,,,,,
tstimHoMcYbkSC4eBA1wEg,Mama Maria's Mexican Restaurant,6055 E Lake Mead Blvd,89156,36.1955918,-115.04046,4.5,120,Restaurants,Mexican,,,,,,,,,,,,,
QC_KrEEakL-baYfnTXw2FQ,Wireless Doctor Computer Solutions,"7377 S. Jones Ave., Ste 111",89139,36.0552438,-115.2258702,4,107,Electronics Repair,Local Services,Computers,Mobile Phone Repair,Professional Services,IT Services & Computer Repair,Shopping,,,,,,,,
f9sU31meK0bqAD7922sCog,Sage,3732 Las Vegas Blvd S,89109,36.10819232,-115.1760135,4,917,Mediterranean,Restaurants,American (New),,,,,,,,,,,,
Do4n_yK_K6DmR9_Es5qwlA,Drugstore Cafe,3131 Las Vegas Blvd S,89109,36.1265953,-115.1653652,3.5,148,Restaurants,Desserts,Coffee & Tea,Food,Sandwiches,Delis,Cafes,,,,,,,,
5iSmZO0SrKU6EoXK_1M8Kw,Monte Carlo Hotel And Casino,3770 Las Vegas Blvd S,89109,36.1051256,-115.1752326,3,2080,Event Planning & Services,Hotels & Travel,Resorts,Hotels,Casinos,Arts & Entertainment,,,,,,,,,
xkVMIk_Vqh17f48ZQ_6b0w,Tom Colicchio's Craftsteak,3799 Las Vegas Blvd S,89109,36.102918,-115.169751,4,1915,Steakhouses,Restaurants,Cheesesteaks,Food,American (New),Desserts,,,,,,,,,
XlUuMGMvkzy_QLAUTEe-fw,Dumpling King,5740 Spring Mountain Rd,89146,36.1260788,-115.2198304,3.5,120,Restaurants,Szechuan,Chinese,Halal,Dim Sum,,,,,,,,,,
d4qwVw4PcN-_2mK2o1Ro1g,Pink Taco,"Hard Rock Hotel & Casino, 4455 Paradise Rd",89169,36.1100828,-115.1538714,3.5,841,Mexican,Restaurants,,,,,,,,,,,,,
AiwkoTWc1egLYauiZ3SC2A,"Dana Forte, DO - Forte Family Practice",9010 W Cheyenne Ave,89129,36.218884,-115.292938,2,118,Health & Medical,Pediatricians,Family Practice,Doctors,,,,,,,,,,,
4k3RlMAMd46DZ_JyZU0lMg,Ramen Sora,4490 Spring Mountain Rd,89102,36.1265262,-115.2017756,4,1008,Japanese,Restaurants,Ramen,Noodles,,,,,,,,,,,
Po0QGzgwFrfnGJEi_akCjA,Korean Garden BBQ House,4355 Spring Mountain Rd,89102,36.125908,-115.197904,3,260,Korean,Barbeque,Restaurants,,,,,,,,,,,,
YCEZLECK9IToE8Mysorbhw,Daily Kitchen Modern Eatery and Rotisserie,"3645 S Town Center Dr, Ste 102",89135,36.1242687,-115.3254095,3.5,143,Breakfast & Brunch,American (New),Restaurants,,,,,,,,,,,,
eKVCZlOkvf7gsHazOX_dLQ,The Jungle Zone,3655 S Durango Dr,89147,36.1232761,-115.2796896,5,153,Tattoo,Shopping,Piercing,Beauty & Spas,Tobacco Shops,,,,,,,,,,
h3pMMRwqBjMeMtk0_qQzRQ,Mezzo Bistro and Wine,"4275 N Rancho Dr, Ste 130",89130,36.2371812,-115.2311905,3.5,332,Italian,Restaurants,,,,,,,,,,,,,
6xgcHeLad-VaoTIQewK84A,N9NE Steakhouse,4321 W Flamingo Rd,89103,36.11475,-115.1941,4,800,Steakhouses,Restaurants,American (Traditional),Seafood,,,,,,,,,,,
VzUo-RURV3VnfNItAYM8yg,Boba Hut,"5597 S Rainbow Blvd, Ste 130",89118,36.087483,-115.243782,4,181,Restaurants,Chinese,Hawaiian,Food,Coffee & Tea,Asian Fusion,Bubble Tea,,,,,,,,
mSTbn8xBzavGa8YB1gmnqQ,Spring Valley Hospital Medical Center,5400 S Rainbow Blvd,89118,36.09119433,-115.2421844,2.5,153,Medical Centers,Hospitals,Health & Medical,,,,,,,,,,,,
SVUxmYs6_TvX5kWv0ok-MA,No. 1 Boba Tea,"9711 S Eastern Ave, Ste H-12",89183,36.01251205,-115.1197,4,215,Juice Bars & Smoothies,Food,Bubble Tea,Coffee & Tea,,,,,,,,,,,
H_eO04NZAQIDcbtFQ4BUag,Bobo China,8465 W Sahara Ave,89117,36.1429966,-115.2761063,4.5,158,Restaurants,Fast Food,Chinese,,,,,,,,,,,,
d482l58ho0_IMdFkXX1F5Q,DB Brasserie,3355 S Las Vegas Blvd S,89109,36.122917,-115.168527,3.5,317,Brasseries,French,Restaurants,Nightlife,Bars,,,,,,,,,,
xj6Xs3HHr7YBdY2gH3sOfw,Tix4Tonight - Fashion Show Mall,"3200 Las Vegas Blvd S, #1232",89109,36.12665504,-115.1693543,3.5,134,Arts & Entertainment,Ticket Sales,,,,,,,,,,,,,
uuGlYAIvYAX1q1KhpY6dtA,Brand Steakhouse,3770 Las Vegas Blvd S,89109,36.10478015,-115.1749268,4,481,Nightlife,Steakhouses,American (Traditional),Restaurants,Bars,,,,,,,,,,
jmyvOW6G2T1fIePvajB4nQ,Cuba Cafe,2055 E Tropicana Ave,89119,36.1002598,-115.1251555,4,261,Tapas Bars,Cuban,Restaurants,,,,,,,,,,,,
VYNriOotbFZ7Qj_6jwUB5g,Sergio's Italian Gardens,1955 E Tropicana Ave,89119,36.100414,-115.1265829,4,129,Italian,Restaurants,Event Planning & Services,Venues & Event Spaces,Caterers,,,,,,,,,,
Ta4GRuHyZvU5H_l5IAG1PQ,Nanay Gloria's,"5980 W Spring Mountain Rd, Ste 2",89146,36.125541,-115.223274,3.5,128,Filipino,Restaurants,,,,,,,,,,,,,
y_3IkHGoSkZlAqdkrMG-1w,Mardi Gras Hotel & Casino,3500 Paradise Rd,89169,36.125652,-115.153687,2,202,Casinos,Venues & Event Spaces,Hotels & Travel,Arts & Entertainment,Hotels,Event Planning & Services,,,,,,,,,
XdOxflXrlWRdL9IWzXC54Q,Olive Garden Italian Restaurant,6191 Centennial Center Blvd,89149,36.27276647,-115.266529,3.5,146,Wine Bars,Nightlife,Restaurants,Bars,Italian,Salad,,,,,,,,,
jnroKk9qi0FR2bFSkxYZNg,Booming Pot Noodles,"3466 S Decatur Blvd, Ste E",89102,36.1268272,-115.2075436,4,150,Restaurants,Soup,Taiwanese,Chinese,,,,,,,,,,,
6z3cgIE9dJ01wUm43f0yBQ,Fat Dumpling,3959 W Spring Mountain Rd,89109,36.1264476,-115.1926856,3.5,188,Bubble Tea,Chinese,Restaurants,Food,,,,,,,,,,,
1xieLFUt_lgTUuGRabiMpQ,The Deuce,Las Vegas Strip,89162,36.10743029,-115.1737337,3.5,171,Buses,Transportation,Public Transportation,Hotels & Travel,,,,,,,,,,,
DyVteo8Blf5gEfC9QbJE9A,Arizona Charlie's Decatur,740 S Decatur Blvd,89107,36.16354219,-115.207427,3,127,Event Planning & Services,Casinos,Arts & Entertainment,Hotels,Restaurants,Hotels & Travel,,,,,,,,,
tNJkfAMdwznUX4l31cgq4Q,"Bluegreen Vacations Club 36, Ascend Resort Collection",372 East Tropicana Ave,89169,36.103149,-115.156798,3,215,Resorts,Hotels,Hotels & Travel,Event Planning & Services,Vacation Rentals,,,,,,,,,,
uWECX6-Uq9n8v5ipk9R29A,Lola's A Louisana Kitchen,"241 W Charleston Blvd, Ste 101",89102,36.158293,-115.1579886,4,811,Cajun\/Creole,Restaurants,,,,,,,,,,,,,
YnmtUJGqQIQL9tz1MRyfqA,Michael Mina Pub 1842,3799 Las Vegas Blvd S,89109,36.10301792,-115.1676889,4,501,Gastropubs,Restaurants,Irish,Pubs,Nightlife,Bars,,,,,,,,,
5iSlHNIy3RLbCP5AayB31g,Ruby Tuesday,865 West Craig Road,89032,36.23883409,-115.1540065,3.5,121,Bars,Restaurants,Burgers,Nightlife,American (Traditional),,,,,,,,,,
s0vNtuLs1cwEqHTXKiS05w,Babystacks Cafe,"7090 N Durango Dr, Ste 140",89149,36.2896832,-115.2868474,4,370,Cafes,Restaurants,American (New),Hawaiian,Breakfast & Brunch,,,,,,,,,,
kABF0hYfAEnl166mn1zR1A,The Noodle Man,"6870 S Rainbow Blvd, Ste 101",89118,36.0641072,-115.2415182,4,361,Szechuan,Specialty Food,Soup,Restaurants,Local Flavor,Pasta Shops,Chinese,Food,Noodles,,,,,,
hHMK_9tDZnHyKrCylQQaew,ClearVision Eye Centers,"6910 S Rainbow Blvd, Ste 102",89118,36.0627181,-115.2414561,4.5,154,Health & Medical,Optometrists,Eyewear & Opticians,Shopping,,,,,,,,,,,
oWD385Ues-RWJmhP_Riz1g,Griddlecakes,9480 S Eastern Ave,89123,36.017362,-115.117046,3.5,313,American (Traditional),Restaurants,Breakfast & Brunch,,,,,,,,,,,,
NlNZgDWJhOYz9zoKE2ydMQ,The Grand Canal Shoppes,"The Venetian Hotel, 3377 Las Vegas Blvd S",89109,36.1218632,-115.1696491,3.5,115,Shopping Centers,Shopping,,,,,,,,,,,,,
JXwyTKI7TlnleDhT3LRKKQ,Rhumbar,3400 Las Vegas Blvd S,89109,36.1206015,-115.1768382,3.5,325,Lounges,Bars,Nightlife,Hookah Bars,DJs,Event Planning & Services,,,,,,,,,
EhIMjTklf4QPvRvMIhoQiA,Miracle Mile Shops,3667 Las Vegas Blvd S,89109,36.1098636,-115.1699341,3.5,409,Shopping,Shopping Centers,,,,,,,,,,,,,
n0bg7kf6HcpFchCtxJyc5A,Mr Chow,3570 Las Vegas Blvd S,89109,36.1161559,-115.1750576,3,181,Chinese,Restaurants,,,,,,,,,,,,,
01SiPgdiOskMC5bUJoyy_g,Winchell's Pub & Grill,199 E Warm Springs Rd,89119,36.0566383,-115.1636524,3.5,100,Pubs,Restaurants,American (Traditional),Bars,Nightlife,,,,,,,,,,
jXyy2Vc-Dgp7QguQJSfnXw,Lazeez,"8560 W Desert Inn Rd, Ste D-3",89117,36.1300289,-115.2777727,4,169,Mediterranean,Halal,Indian,Restaurants,,,,,,,,,,,
qAN2Rqhj7I84qN6iDIoP6g,Platinum Entourage,"6670 S Tenaya Way, Ste 140",89113,36.06711363,-115.2514207,4.5,263,Blow Dry\/Out Services,Hair Salons,Hair Stylists,Beauty & Spas,,,,,,,,,,,
EAwh1OmG6t6p3nRaZOW_AA,Ellis Island Casino & Brewery,4178 Koval Ln,89109,36.1130255,-115.1634847,4,1758,Casinos,Breweries,Barbeque,Arts & Entertainment,Karaoke,American (Traditional),Restaurants,Bars,Pubs,Food,Nightlife,,,,
SycXTaA4MeJZuDK4Y1owDQ,Islands Restaurant,10810 W Charleston Blvd,89135,36.16003558,-115.3314544,3.5,206,Burgers,American (Traditional),Restaurants,Bars,Sports Bars,Nightlife,,,,,,,,,
UcgCSTCtPv1GeW5bKsEdag,Grind Burger Bar and Lounge,360 E Tropicana Ave,89169,36.10131,-115.156429,4,199,American (New),Restaurants,Burgers,,,,,,,,,,,,
fpM-O9Ul62xizBq9YNO_tQ,Romano's Macaroni Grill,2001 N Rainbow Blvd,89108,36.19813466,-115.2424329,3,136,Italian,Restaurants,,,,,,,,,,,,,
5OqrwhtZ3mcmUSwLINZTWQ,Blossom,3730 Las Vegas Blvd S,89109,36.10676312,-115.1770871,4,211,Chinese,Restaurants,,,,,,,,,,,,,
EVxY3Vcc-4uavsq2CQsk3g,Tryst Nightclub,3131 South Las Vegas Blvd,89109,36.12681141,-115.1674016,3.5,992,Dance Clubs,Nightlife,,,,,,,,,,,,,
74C1z6cqEdvJVgETTcEodw,Portofino by Chef Michael LaPlaca,3400 Las Vegas Blvd S,89109,36.1206015,-115.1768382,4,227,Restaurants,Nightlife,Italian,Wine Bars,Lounges,Bars,,,,,,,,,
FooKqQJ3UnsIG2slFPuLRA,Canter's Delicatessen,"Treasure Island Casino, 3300 Las Vegas Blvd S",89109,36.124467,-115.171033,3.5,141,Sandwiches,Restaurants,Delis,,,,,,,,,,,,
KalAJyO0Zpg3K1wVwYXBHA,MarchÌ© Bacchus,"2620 Regatta Dr, Ste 106",89128,36.2075183,-115.2681365,4,509,Wine Bars,Nightlife,Bars,Restaurants,French,,,,,,,,,,
WDKTg468bkRPW0LqbAZfmg,Sugar Factory,"6605 S Las Vegas Blvd, Ste 145",89119,36.0687779,-115.1768402,3.5,324,Brasseries,Candy Stores,Pizza,Restaurants,Specialty Food,Food,Burgers,American (New),,,,,,,
nem993SnNaDRExIBClyLHA,Party USA,800 S Rampart Blvd,89145,36.1629282,-115.2907175,3.5,102,Event Planning & Services,Party Supplies,Party Equipment Rentals,Shopping,Arts & Crafts,Costumes,,,,,,,,,
3BCsAgo_1i4xMuTyLKMLRQ,SkinnyFATS,6261 Dean Martin Dr,89118,36.07585711,-115.1816333,4.5,1311,Juice Bars & Smoothies,Delis,Food,American (New),American (Traditional),Restaurants,Breakfast & Brunch,Food Delivery Services,,,,,,,
yhgUyctWczUN13MinNgZ3w,Westgate Las Vegas Resort & Casino,3000 Paradise Rd,89109,36.13614021,-115.1515443,2,891,Casinos,Arts & Entertainment,Home Services,Hotels & Travel,Resorts,Event Planning & Services,Real Estate Services,Hotels,Real Estate,,,,,,
cbdg2vJ6vM6Vq2EaJkpNCQ,Boca Park Animal Hospital,1050 S Rampart Blvd,89145,36.1607777,-115.2914104,4.5,140,Pets,Veterinarians,,,,,,,,,,,,,
Gdv3qhsDeQzZ2Ag-Tzq6vA,Rocco's NY Pizzeria,"10860 W Charleston Blvd, Ste 190",89135,36.16122701,-115.3329908,4,240,Restaurants,Pizza,,,,,,,,,,,,,
bgx6gYdktqEoQwBdo5lRbA,Serrano's Mexican Restaurant,136 S Rainbow Blvd,89145,36.17256042,-115.2458216,4.5,111,Restaurants,Mexican,,,,,,,,,,,,,
kRgAf6j2y1eR0wOFdzFAuw,Firefly,3824 Paradise Rd,89169,36.12013508,-115.1544175,4.5,1130,Restaurants,Tapas Bars,Spanish,Tapas\/Small Plates,,,,,,,,,,,
upp6RJZd30fHIX5g3ntxBA,Embassy Suites by Hilton Las Vegas,4315 Swenson St,89119,36.110912,-115.1512323,3.5,108,Hotels & Travel,Venues & Event Spaces,Hotels,Event Planning & Services,,,,,,,,,,,
RESDUcs7fIiihp38-d6_6g,Bacchanal Buffet,"Caesars Palace Las Vegas Hotel And Casino, 3570 Las Vegas Boulevard South",89109,36.11585434,-115.1761744,4,5715,Buffets,Sandwiches,Food,Restaurants,Breakfast & Brunch,,,,,,,,,,
ZjSzUWHtnpCfjsa7CksSOg,The Signature at MGM Grand,145 E Harmon Ave,89109,36.10623464,-115.166951,4,1356,Beauty & Spas,Hotels,Day Spas,Home Cleaning,Hotels & Travel,Event Planning & Services,Resorts,Home Services,,,,,,,
S17AXcOslfQqM18VsOiDIQ,Highland Nails & Spa,8020 S Rainbow Blvd,89139,36.0431207,-115.2418895,4,169,Nail Salons,Eyelash Service,Beauty & Spas,,,,,,,,,,,,
6tSvz_21BMo3a4GaItwa0g,JJANGA Japanese Restaurant,"3650 S Decatur Blvd, Ste 31",89103,36.1235575,-115.2075378,4,805,Sushi Bars,Japanese,Restaurants,,,,,,,,,,,,
km5aBHRss5ir_B0jvEErzQ,McFadden's Restaurant and Saloon,"6593 Las Vegas Blvd S, Ste 222",89119,36.0684803,-115.1776797,2,306,Mediterranean,Irish,Restaurants,American (Traditional),Bars,American (New),Dive Bars,Nightlife,,,,,,,
xGU6La_nGJ7cJrMhbtp__Q,Las Vegas Bull,"6611 Las Vegas Blvd, Ste 160",89119,36.06665372,-115.1782835,3.5,139,Country Dance Halls,Dance Clubs,Nightlife,Pool Halls,Bars,,,,,,,,,,
XE6kf2bviFBdGmVI_SJpmA,Hogs and Heifers,201 N 3rd St,89101,36.1718195,-115.1423041,3,180,Nightlife,Bars,,,,,,,,,,,,,
iPM85PQMs7QoAxw-Og9ChQ,Gordon Biersch Brewery Restaurant,"750 S Rampart Blvd, Ste 16",89145,36.1645604,-115.2893048,3.5,185,Breweries,Restaurants,Food,American (New),,,,,,,,,,,
lF4pEu4_55SSFEo6Q58ftQ,German Bread Bakery,2237 N Rampart Blvd,89134,36.2016161,-115.283462,4.5,138,Bakeries,Restaurants,German,Food,,,,,,,,,,,
LFs5jyYdXlzi0SpAYi1eSA,Maggiano's Little Italy,3200 Las Vegas Blvd S,89109,36.12760705,-115.1685336,4,1068,Bars,Restaurants,Nightlife,Italian,,,,,,,,,,,
TL5Dtfnf-5hYG13lBF9N2A,Benihana,3000 Paradise Rd,89109,36.1362575,-115.1512526,3.5,344,Japanese,Beer,Wine & Spirits,Teppanyaki,Food,Restaurants,,,,,,,,,
pLZ9oZM8c6MNbRlg06lBPg,Planet Nissan,5850 Centennial Center Blvd,89149,36.26816766,-115.2597815,3,164,Automotive,Car Dealers,Auto Parts & Supplies,Auto Repair,,,,,,,,,,,
qmymSqVwHYRqdwfcBatzpQ,Vintner Grill,"10100 W Charleston Blvd, Ste 150",89135,36.160122,-115.31731,4,521,American (Traditional),Restaurants,American (New),,,,,,,,,,,,
A6qvHu4tVEKzwjZjWSCeRQ,V - The Ultimate Variety Show,"3663 S Las Vegas Blvd, #360B",89109,36.11074097,-115.1688355,4,288,Performing Arts,Arts & Entertainment,,,,,,,,,,,,,
VvvMc0CsPx8KPjm1BHt6Cw,Dee's Donuts,"6401 N Durango Dr, Ste 150",89149,36.27759547,-115.2887173,4.5,133,Food,Donuts,,,,,,,,,,,,,
J4CATH00YZrq8Bne2S4_cw,CUT,"The Palazzo At Venetian, 3325 S Las Vegas Blvd,  1520, The Palazzo",89109,36.123454,-115.168335,4,1115,Bars,Lounges,Restaurants,Nightlife,Steakhouses,,,,,,,,,,
CvpXZRF-I7wfm19dW1jOXA,Mark Rich's New York Pizza & Pasta,11710 W Charleston Blvd,89135,36.1592907,-115.3509522,3,146,Pizza,Italian,Restaurants,,,,,,,,,,,,
uKlkVuZ5F8QoGbgVQKqH1A,Firkin On Paradise,4503 Paradise Rd,89169,36.10720444,-115.1529465,3.5,100,Bars,Restaurants,Nightlife,Pubs,British,American (Traditional),,,,,,,,,
HcCjIDs9AXLyccVEJOHBMg,Downtown Tattoo,1106 Fremont St,89101,36.1661267,-115.1335253,4.5,158,Beauty & Spas,Tattoo,,,,,,,,,,,,,
0xdpv5CPpbUUch7JKBG98Q,Sirio Ristorante,"Aria Resort and Casino, 3745 Las Vegas Blvd S",89109,36.10688395,-115.1742268,3.5,163,American (New),Restaurants,Italian,,,,,,,,,,,,
q6-SF8zHFU1AWO70k92o1Q,Tivoli Village,440 S Rampart,89144,36.16685936,-115.2869038,3.5,191,Shopping Centers,Shopping,,,,,,,,,,,,,
6KtYYZ4ARIVa2Zj2tOcp9g,Parasol Up \/ Parasol Down,3131 Las Vegas Blvd. South,89109,36.12641765,-115.1664434,4,336,Lounges,Nightlife,Bars,,,,,,,,,,,,
4JNXUYY8wbaaDmk3BPzlWw,Mon Ami Gabi,3655 Las Vegas Blvd S,89109,36.11282706,-115.1725815,4,6414,Restaurants,Steakhouses,French,Breakfast & Brunch,,,,,,,,,,,
ZrS5rhJ4OvXQG_38wPEWlA,Chewy Boba Company,"4632 S Maryland Pkwy, Ste 19",89119,36.10492143,-115.1360133,4.5,114,Food,Desserts,Bubble Tea,Coffee & Tea,,,,,,,,,,,
NMyMnvEVTzWBssOepGGR0A,Lush Fresh Handmade Cosmetics,"3930 Las Vegas Blvd, Ste 115",89119,36.0912617,-115.1742471,4.5,149,Beauty & Spas,Cosmetics & Beauty Supply,Shopping,,,,,,,,,,,,
Qor28v4BlhSwtN8DSvah9g,Pepe's Tacos,1401 N Decatur Blvd,89108,36.18557,-115.207581,3.5,132,Restaurants,Mexican,,,,,,,,,,,,,
WSGHEQdcdbBWXDpna99EiQ,Teriyaki Madness,7481 West Lake Mead,89128,36.1955613,-115.2567931,4,101,Japanese,Asian Fusion,Restaurants,Hawaiian,,,,,,,,,,,
w9gr1-mA-7zBHPjPL87Nsg,Magnolia's Veranda,202 E. Fremont St,89101,36.170384,-115.1439296,3,143,American (Traditional),Restaurants,,,,,,,,,,,,,
41Kbugm-qmIQTt7unkALYQ,Top of Binion's Steakhouse,128 Fremont St,89101,36.1715474,-115.144279,4,234,Steakhouses,Restaurants,Bars,Wine Bars,Seafood,Nightlife,,,,,,,,,
YfKxQzaEly5G4Hf49m_GTQ,Superb Maids,,89149,36.175,-115.213314,5,167,Home Cleaning,Home Organization,Home Services,Office Cleaning,Professional Services,,,,,,,,,,
SuRxV4YkPsvyyqK57On0rQ,Pura Vida Bakery & Bystro,1236 Western Ave,89102,36.1557391,-115.1595401,3.5,220,Food,Caribbean,Restaurants,Vegan,Bakeries,,,,,,,,,,
CBb7z-MTbkzBvsUHBDqxEg,Tony Roma's,200 E Fremont St,89101,36.1710445,-115.1430354,2,192,Barbeque,Seafood,American (Traditional),Restaurants,Steakhouses,,,,,,,,,,
Tf13Wexrt6WmNw-CDW5Gyg,Meatball Spot,"6605 Las Vegas Blvd, Ste 145",89119,36.0683629,-115.1726642,2.5,194,American (New),Restaurants,Italian,,,,,,,,,,,,
2XviJH7LPHVPUdTd1VZCsg,Big Bus Tours - Las Vegas,320 W Utah Ave,89102,36.154085,-115.15777,3.5,100,Hotels & Travel,Tours,Hotels,Bus Tours,Event Planning & Services,,,,,,,,,,
iL2-xJ4-eMsJk88PsbivbQ,Anthony & Marios Broadway Pizzeria,840 S Rancho Dr,89106,36.1617046,-115.1734184,4,215,Salad,Restaurants,Italian,Pizza,,,,,,,,,,,
GMrwDXRlAZU2zj5nH6l4vQ,Pho Thanh Huong,"1131 E Tropicana Ave, Ste D",89119,36.1001831,-115.138668,4,340,Restaurants,Sandwiches,Vietnamese,American (New),,,,,,,,,,,
CMN3KmB5SEfONN00s2nEeQ,Cirque du Soleil - Criss Angel Believe,"Luxor Las Vegas, 3900 Las Vegas Blvd S",89109,36.09558,-115.175818,1.5,834,Arts & Entertainment,Performing Arts,,,,,,,,,,,,,
LUN6swQYa4xJKaM_UEUOEw,Red Carpet VIP,"101 Convention Center Dr, Ste 260",89109,36.131931,-115.160451,4.5,105,Party & Event Planning,Nightlife,Travel Services,Event Planning & Services,Hotels & Travel,Transportation,Limos,,,,,,,,
7HIa2lYy5jgcZuADlRjKSg,Starbucks,7260 S Rainbow Blvd,89118,36.05674231,-115.2422116,2.5,107,Coffee & Tea,Food,,,,,,,,,,,,,
I8j1gHLKNJVN4dNVUOsedw,Vickie's Diner,1700 S Las Vegas Blvd,89104,36.150704,-115.15304,4,134,Diners,Cafes,Restaurants,,,,,,,,,,,,
No3BsB8fFF03WmRPs1d7tw,Phantom,"The Venetian, 3355 Las Vegas Blvd S",89109,36.1418125,-115.1800125,4.5,350,Performing Arts,Arts & Entertainment,,,,,,,,,,,,,
Qc0l8rZ3nvrcERitgxu8XA,Omelet House,2160 W Charleston Blvd,89102,36.1594391,-115.1712276,4.5,762,American (Traditional),Restaurants,Breakfast & Brunch,,,,,,,,,,,,
8SwMaPL6AJIs1ZPSZ3NJ4w,Forte European Tapas Bar and Bistro,"4180 Rainbow Blvd, Ste 806",89103,36.112856,-115.242389,4,358,Ukrainian,Tapas Bars,Restaurants,Spanish,,,,,,,,,,,
ayOJSIl-P16HZAQBcQfUyQ,The California Hotel & Casino,12 East Ogden Ave,89101,36.173216,-115.144837,3.5,331,Hotels & Travel,Event Planning & Services,Hotels,Arts & Entertainment,Casinos,,,,,,,,,,
D2yQpB1U9qMgsxtgP6BXmw,Graceland Wedding Chapel,619 Las Vegas Blvd S,89101,36.162612,-115.144535,4.5,125,Wedding Chapels,Venues & Event Spaces,Event Planning & Services,Wedding Planning,,,,,,,,,,,
qmh6zxtJ8C8-YiUPv7ySlw,Daniel Boulud Brasserie,"Wynn Las Vegas, 3131 Las Vegas Blvd S",89136,36.1268768,-115.1658732,4,219,French,Restaurants,,,,,,,,,,,,,
1ZJz840L496LAmQdeDv0WA,Pinches Tacos,"Shipping Container Park, 707 Fremont St",89101,36.16752618,-115.138435,4,344,Restaurants,Mexican,,,,,,,,,,,,,
Gt4z3AylNTsEPDkzkaC7HA,Stacks & Yolks,"7150 S Durango Dr, Ste 140",89113,36.057847,-115.278523,3.5,647,Breakfast & Brunch,Pretzels,Sandwiches,Burgers,Food,American (Traditional),Restaurants,,,,,,,,
qTmuW0C9XXuxWwumvn89sw,The Mac King Comedy Magic Show,3475 S Las Vegas Blvd,89109,36.1193098,-115.1717702,4.5,403,Arts & Entertainment,Performing Arts,,,,,,,,,,,,,
GU7ww3eoGTcXAze8VJtC7g,Fin,3400 Las Vegas Blvd S,89109,36.1206015,-115.1768382,3,119,Chinese,Restaurants,Nightlife,Food,Bars,Wine Bars,Beer,Wine & Spirits,,,,,,,
mbLguBsFuy34zKlor2xcIg,Hilton Grand Vacations on the Boulevard,2650 Las Vegas Boulevard South,89109,36.1399028,-115.1608424,3.5,444,Event Planning & Services,Beauty & Spas,Day Spas,Hotels,Hotels & Travel,,,,,,,,,,
IWN2heYitkg-D4UdqfxcMA,HEXX kitchen + bar,"Paris Las Vegas, 3655 Las Vegas Blvd S",89109,36.11289,-115.171282,4,778,Bars,Nightlife,Desserts,Cocktail Bars,Food,Restaurants,American (New),,,,,,,,
wpnLPAnkMEb1NpC3xiD_qg,Aloha Specialties,12 E Ogden Ave,89101,36.1729495,-115.1447421,4,530,Hawaiian,Japanese,Asian Fusion,Filipino,Restaurants,,,,,,,,,,
o1dX8oFupfjbBpYgT7TH0w,Thunder From Down Under,"Excalibur Hotel Thunder Showroom, 3850 Las Vegas Blvd S",89109,36.097106,-115.176612,4,373,Adult Entertainment,Arts & Entertainment,Performing Arts,Nightlife,,,,,,,,,,,
KXITXbKuE60WSUDs7NZVLQ,Table 10,3327 Las Vegas Blvd S,89109,36.12478,-115.167966,3.5,618,Restaurants,American (New),Diners,Cajun\/Creole,,,,,,,,,,,
iBPyahdJRP5y0t25fF2W9w,Lip Smacking Foodie Tours,3635 Las Vegas Blvd S,89109,36.11453676,-115.1726783,5,130,Food,Tours,Walking Tours,Hotels,Food Tours,Event Planning & Services,Hotels & Travel,Restaurants,,,,,,,
Lq9rYrwvWV5QDBYzq7MGHQ,Osaka Japanese Bistro,4205 W Sahara Ave,89102,36.1438869,-115.1968986,4,312,Restaurants,Sushi Bars,Japanese,,,,,,,,,,,,
lOQPeguczAueJnLmDUTfGg,Bonito Michoacan,3715 S Decatur Blvd,89103,36.1221978,-115.2089027,4,481,Restaurants,Mexican,,,,,,,,,,,,,
pi4FLFEOn9AhNUxiLbBeHg,Hawaiian Style Poke,3524 Wynn Rd,89103,36.12554807,-115.1944859,4,171,Restaurants,Hawaiian,Food,Poke,,,,,,,,,,,
QGAv-8tj5i4m4G-HDMnIbA,The Griddle CafÌ©,"SLS Las Vegas, 2535 S. Las Vegas Blvd",89109,36.1427564,-115.1578748,4,244,American (Traditional),Cafes,Restaurants,Sandwiches,Breakfast & Brunch,Diners,,,,,,,,,
9wjTzw8bEYOTQJk41V8WQw,Imperial Palace Hotel & Casino,3535 Las Vegas Blvd S,89109,36.1181654,-115.1706363,2.5,774,Hotels & Travel,Arts & Entertainment,Hotels,Casinos,Event Planning & Services,,,,,,,,,,
0InA3Ffj8MxyQV9hgsyYcQ,Novecento Pizzeria,"5705 Centennial Center Blvd, Ste 170",89149,36.2651489,-115.2595274,4,306,Restaurants,Specialty Food,Food,Italian,Salad,Pizza,,,,,,,,,
jBs2HmEOkqCvdHNnw3N-og,Red Robin Gourmet Burgers,7860 W. Tropical Parkway,89149,36.271428,-115.266543,3.5,225,Sandwiches,Burgers,Restaurants,American (Traditional),,,,,,,,,,,
4Pb7SlTK89uSdqOwMNM35A,Tequila Taqueria,3645 Las Vegas Blvd S,89109,36.1142773,-115.1709763,3,125,Restaurants,Mexican,Tex-Mex,,,,,,,,,,,,
iw56fh9lBAIseMOKDcu9_w,777 Towing,231 Utah Ave,89102,36.1532285,-115.1567474,2.5,102,Automotive,Towing,,,,,,,,,,,,,
4Bw9XffSa0AMy2SrNCS2KA,Sababa Mediterranean Grill,3220 S Durango Dr,89117,36.1309442,-115.2784531,3.5,169,Falafel,Middle Eastern,Kosher,Restaurants,Mediterranean,,,,,,,,,,
vw81ARj4ihGzcmanHw6dUg,Gold Diggers,"Golden Nugget Hotel Casino, 129 E Fremont St",89101,36.17036781,-115.1453091,3.5,105,Arts & Entertainment,Music Venues,Lounges,Bars,Nightlife,Dance Clubs,,,,,,,,,
_ixV2SWDy7w8jzEAHp85qA,First Food & Bar,"The Palazzo, 3327 Las Vegas Blvd S",89109,36.12355948,-115.1686692,3.5,357,American (New),American (Traditional),Nightlife,Bars,Restaurants,,,,,,,,,,
hwZ2lxIMR1kJcCUY0PT9rA,Ashley HomeStore,91 S Martin Luther Kg Blvd,89106,36.175574,-115.16068,2.5,110,Home Decor,Mattresses,Furniture Stores,Home & Garden,Shopping,,,,,,,,,,
0EUohlWGBPnIgzCULyWl7g,Rok Vegas,3790 Las Vegas Blvd S,89109,36.1030009,-115.1735161,2.5,107,Dance Clubs,Nightlife,,,,,,,,,,,,,
rMrymOj6RcBBddGuOjv_IQ,Grand Garden Arena,3799 Las Vegas Blvd S,89109,36.10475005,-115.1685494,3.5,185,Venues & Event Spaces,Nightlife,Stadiums & Arenas,Arts & Entertainment,Music Venues,Event Planning & Services,,,,,,,,,
pzj-v-mEHbxxjcBf7Ai5lA,Motel 6,195 E Tropicana Ave,89109,36.1006042,-115.1646083,2.5,116,Hotels,Hotels & Travel,Event Planning & Services,,,,,,,,,,,,
p2_npu4-bMQsCWC-GtRnyg,Chapel of the Flowers,1717 Las Vegas Blvd S,89104,36.1504637,-115.1525767,4,162,Shopping,Event Planning & Services,Flowers & Gifts,Venues & Event Spaces,Florists,Wedding Planning,Photographers,,,,,,,,
Kbbm6Vd5UdbP10dwjBghRw,In-N-Out Burger,3882 Blue Diamond Rd,89139,36.04062762,-115.1912562,4,191,Restaurants,Fast Food,Burgers,,,,,,,,,,,,
hXWpDIXvfisGV78-4HWbJg,SpringHill Suites Las Vegas Convention Center,2989 Paradise Rd,89109,36.1350977,-115.1555215,4,101,Hotels,Hotels & Travel,Event Planning & Services,,,,,,,,,,,,
0KFA2m39eZwq2F7WvMCoyw,Heart Bar,"Planet Hollywood Las Vegas Resort & Casino, 3667 Las Vegas Boulevard South",89109,36.1096948,-115.1701624,3.5,104,Nightlife,Lounges,Bars,Adult Entertainment,,,,,,,,,,,
UvcH52d-FQ3waD5Z0LmFCQ,Ramen Ya Katana,"3615 Las Vegas Blvd S, Ste 109",89109,36.1138863,-115.1727539,3.5,114,Ramen,Japanese,Restaurants,Noodles,,,,,,,,,,,
CiYLq33nAyghFkUR15pP-Q,TACOS EL GORDO,1724 E Charleston Blvd,89104,36.1584751,-115.1265495,4.5,1151,Mexican,Restaurants,,,,,,,,,,,,,
H8qlBw1YaxMsItfz25-AyA,John Cutter,11770 W Charleston Blvd,89135,36.159014,-115.351342,3,241,Restaurants,American (New),Chicken Wings,Burgers,,,,,,,,,,,
65GMvjjrsvyR9pxxAys7qg,Bass Pro Shops,8200 Dean Martin Dr,89139,36.0407976,-115.1828588,4,218,Outdoor Gear,Shopping,Sporting Goods,,,,,,,,,,,,
0pvEQRFVBjxz1W7dNpNZFg,Diamond Nails & Spa,"7775 S Rainbow Blvd, Ste 125",89139,36.047815,-115.244075,4,527,Skin Care,Eyelash Service,Hair Removal,Beauty & Spas,Nail Salons,Day Spas,,,,,,,,,
fIewmXMJlsm7-fY335mtcg,Count's Vamp'd,6750 W Sahara Ave,89146,36.1447414,-115.2394947,3.5,176,Nightlife,Arts & Entertainment,Music Venues,,,,,,,,,,,,
XPIUUhZyClvXW4-rT3tRMQ,Bahama Buck's,"7345 Arroyo Crossing Pkwy, Ste 105",89113,36.0630388,-115.2520521,4,162,Food,Desserts,Juice Bars & Smoothies,Shaved Ice,,,,,,,,,,,
hIUKufhwR6Ifn7bi0-phLA,Baguette Cafe,"8359 W Sunset Rd, Ste 100",89113,36.066865,-115.273241,4.5,899,Sandwiches,Coffee & Tea,Cafes,Restaurants,French,Delis,Vegan,Breakfast & Brunch,Food,,,,,,
xmWs-su5eB5_57CIw4sqfw,Gina's Bistro,4226 S Durango Dr,89117,36.1128802,-115.2786224,4.5,172,Restaurants,Italian,,,,,,,,,,,,,
YkOCo5ipV2he2WXIAlZb-A,Jaburritos Sushi Burritos,"6090 S Rainbow Blvd, Ste 2",89118,36.0780826,-115.2421567,4.5,226,Restaurants,Mexican,Asian Fusion,Sushi Bars,,,,,,,,,,,
gJhMeq2nVH27tz8LqbD3eQ,Raiding The Rock Vault,3801 Las Vegas Blvd S,89109,36.099378,-115.171007,5,287,Music Venues,Nightlife,Arts & Entertainment,Performing Arts,,,,,,,,,,,
78TC3sZSYBzBsSJ0z5pyhw,Le Provencal,"Paris Las Vegas Hotel & Casino, 3655 Las Vegas Boulevard South",89109,36.11250064,-115.170579,2.5,130,Restaurants,French,Italian,,,,,,,,,,,,
fWetLvfQXqpZcBQLHldUhA,The D,301 Fremont St,89101,36.169101,-115.143236,3,671,Casinos,Arts & Entertainment,Hotels & Travel,Hotels,Event Planning & Services,Bars,Nightlife,,,,,,,,
68vGFIH94olrtPi1kAEYVw,Gordie Brown,129 Fremont St,89101,36.1696229,-115.1415204,4,110,Comedy Clubs,Arts & Entertainment,Nightlife,Performing Arts,,,,,,,,,,,
H85um1dDQHAeUJ6AqYIqww,Move 4 Less,7632 W Post Rd,89113,36.0741662,-115.2576408,4,263,Movers,Real Estate,Real Estate Services,Home Services,,,,,,,,,,,
1SE9f6TEV5XhnTuuK01xwA,Wingstop,3910 S Maryland Pkwy,89119,36.11790839,-115.1371387,3,121,Restaurants,Food,Chicken Wings,Fast Food,,,,,,,,,,,
#NAME?,Blueberry Hill Family Restaurant,1505 E Flamingo Rd,89119,36.1142203,-115.1327808,4,537,Breakfast & Brunch,Restaurants,Diners,,,,,,,,,,,,
SzBpr6or7BQcjc-e3ARLjw,Greens and Proteins,6375 S Rainbow Blvd,89118,36.07262265,-115.2435128,4.5,118,Restaurants,Sandwiches,Breakfast & Brunch,,,,,,,,,,,,
#NAME?,MGM Grand Buffet,3799 Las Vegas Blvd S,89109,36.10209118,-115.1717784,2.5,873,Restaurants,Buffets,American (Traditional),,,,,,,,,,,,
mUdalYTuAtnZm2K9zoH27Q,L'Atelier de JoÌÇl Robuchon,3799 Las Vegas Blvd S,89109,36.10259007,-115.1705414,4.5,886,Restaurants,French,,,,,,,,,,,,,
ruPFtD9dU6Cv9_wpzIR4UQ,Coronado Cafe,"South Point Hotel & Casino, 9777 S Las Vegas Blvd",89183,36.011426,-115.174196,3,358,Diners,Restaurants,,,,,,,,,,,,,
EvxTD0ETbbFbFjUMWhHbIw,Oh Curry,"5051 Stewart Ave, Ste 101",89110,36.1659025,-115.063513,4.5,178,Restaurants,Japanese,,,,,,,,,,,,,
-95mbLJsa0CxXhpaNL4LvA,The Perfect Scoop & Boba Tea,"7377 S Jones Blvd, Ste 115",89139,36.055251,-115.225806,4,537,Juice Bars & Smoothies,Ice Cream & Frozen Yogurt,Coffee & Tea,Desserts,Food Delivery Services,Bubble Tea,Food,,,,,,,,
xk-fOf_M39kDTgzfVgu0Tw,Rachel's Kitchen,"150 Las Vegas Blvd N, Ste 160",89101,36.169872,-115.139516,4,242,Breakfast & Brunch,American (New),Restaurants,Diners,Juice Bars & Smoothies,Sandwiches,Food,,,,,,,,
QpmotuTsf_nHT8RKViFMPQ,Fuku Burger,"3743 S Las Vegas Blvd, Ste 104",89109,36.10650148,-115.1724545,4,173,Asian Fusion,Burgers,American (Traditional),Restaurants,,,,,,,,,,,
y9ukbhhyYC2qrPSS9eWh5Q,The Cromwell Las Vegas Resort & Casino,3595 Las Vegas Blvd S,89109,36.1150489,-115.1718308,3.5,318,Arts & Entertainment,Casinos,,,,,,,,,,,,,
HnbkGxUs7oWKYDeB-Pk82Q,Espressamente illy,"Palazzo Waterfall Atrium, 3325 S Las Vegas Boulevard",89109,36.12347839,-115.168578,3.5,333,Restaurants,Cafes,Food,Coffee & Tea,Italian,Desserts,,,,,,,,,
ZCQa7CJxZ-53Zxd_pobWug,Le Cafe Ile St. Louis,3655 Las Vegas Blvd S,89109,36.112544,-115.170981,3,439,Food,Coffee & Tea,Southern,French,Breakfast & Brunch,Restaurants,,,,,,,,,
zXvtouoaOsL0Bp0udugAjQ,DeTourVegas,,89118,36.0809667,-115.2244853,5,145,Lakes,ATV Rentals\/Tours,Tours,Hotels & Travel,Mountain Biking,Rafting\/Kayaking,Active Life,Travel Services,,,,,,,
1flKw3TnAJKvyZ_uAP1KKA,Zombie Apocalypse Store,3420 Spring Mountain Rd,89102,36.126681,-115.1858733,4,175,Souvenir Shops,Guns & Ammo,Shopping,Escape Games,Hobby Shops,Challenge Courses,Active Life,,,,,,,,
3h5jLa-kbHg0cL7v9En0Lg,Firelight Buffet,5111 Boulder Hwy,89122,36.10839835,-115.0468477,3,125,Buffets,Restaurants,,,,,,,,,,,,,
J8_AGg7Pb6s4B75MHBMEUQ,Tropical Smoothie Cafe,"4262 Blue Diamond Rd, Ste  103",89139,36.0380218,-115.1968084,2,159,Juice Bars & Smoothies,Food,,,,,,,,,,,,,
JQLi-Ow9pg391iMzw5LSwg,Mary's Hash House,"2605 S Decatur Blvd, Ste 103",89102,36.142094,-115.209418,4,272,Breakfast & Brunch,Restaurants,,,,,,,,,,,,,
jb_QTeYTSS642UafKRFs2Q,Popcorn Girl,"8550 W Charleston Blvd, Ste 109",89117,36.1599202,-115.2790222,4.5,169,Popcorn Shops,Food,Specialty Food,Desserts,,,,,,,,,,,
UV2Jt8slktGu14gLZeNCjA,Mint Indian Bistro,"730 E Flamingo Rd, Ste 10",89119,36.11487547,-115.1474047,4,815,Halal,Restaurants,Indian,Vegan,,,,,,,,,,,
5aeR9KcboZmhDZlFscnYRA,Fresh Mama,"5875 S Rainbow Blvd, Ste 104",89118,36.08235,-115.243453,3.5,103,Cafes,Restaurants,,,,,,,,,,,,,
AZlnpvILz5cEWJifjr2CSQ,Roma Deli II and Wine Shop,8524 W Sahara Ave,89117,36.1445144,-115.277522,4,116,Delis,Italian,Restaurants,,,,,,,,,,,,
G5iz09NiHOtAcxAAcMCXzA,Liquid Pool Lounge,"ARIA Resort & Casino, 3730 Las Vegas Blvd",89109,36.10674754,-115.1786891,3,141,Cafes,Restaurants,Active Life,Swimming Pools,,,,,,,,,,,
SEMvJDVnDB4NoPW6tXXO_Q,Goong Korean BBQ Restaurant,7729 S Rainbow Blvd,89139,36.04782017,-115.244066,4.5,300,Korean,Barbeque,Restaurants,,,,,,,,,,,,
urALunwW79g5ZzWzHQ250g,Flightlinez at Fremont,"425 Fremont St, Ste 160",89101,36.1693334,-115.1408524,4,155,Arts & Entertainment,Active Life,Performing Arts,Amusement Parks,,,,,,,,,,,
igPCZTC4rf1E1kgBJ4sLOw,Professional Brake Service,"544 E Silverado Ranch Blvd, Ste 104",89183,36.01373,-115.1516232,5,188,Automotive,Botanical Gardens,Financial Services,Insurance,Auto Repair,Arts & Entertainment,,,,,,,,,
sNVGdeOPeitJ3OWUQBINzQ,BabyStacks Cafe,"4135 S Buffalo Dr, Ste 101",89147,36.1136678,-115.2614725,4,1002,Breakfast & Brunch,Restaurants,Cafes,American (Traditional),,,,,,,,,,,
dSNDFR5VenZr-Q2itNvzHQ,Chapman Las Vegas Dodge Chrysler Jeep Ram,3175 E Sahara Ave,89104,36.1438235,-115.1059417,3,142,Auto Parts & Supplies,Car Dealers,Automotive,Auto Repair,,,,,,,,,,,
m4EqSB0aI17jzMyCtdfWAA,Bare Pool Lounge,"The Mirage Hotel & Casino, 3400 Las Vegas Blvd S",89109,36.12120417,-115.1740308,3.5,166,Lounges,Swimming Pools,Nightlife,Bars,Active Life,,,,,,,,,,
Uxm9N6jwmJybOv1NcBbnRw,Sekushi Japanese Restaurant,3655 Las Vegas Blvd S,89109,36.1123576,-115.1702213,4.5,145,Restaurants,Japanese,Sushi Bars,,,,,,,,,,,,
LEASX4wn1U1TAmwQfsDtIw,Slots A Fun,2880 S Las Vegas Blvd,89109,36.13673869,-115.1630902,3,119,Arts & Entertainment,Hotels,Amusement Parks,Event Planning & Services,Casinos,Active Life,Hotels & Travel,,,,,,,,
Ccjo5j4A5-gVaBbuHAqzVA,Polo Towers by Diamond Resorts,3745 Las Vegas Blvd S,89109,36.1065949,-115.1709543,3,283,Hotels,Hotels & Travel,Event Planning & Services,,,,,,,,,,,,
sSmt7JFTDNCcK1KfMVO2hw,Mickie Finnz,"425 Fremont St, Ste 120",89101,36.1689181,-115.1415925,2.5,168,Seafood,Music Venues,Burgers,Restaurants,Lounges,Bars,Nightlife,Arts & Entertainment,,,,,,,
WETHRoXB2IbixndSlOktJA,Lulu's Bread & Breakfast,6720 Skypointe Dr,89131,36.28350067,-115.2698822,4,370,Breakfast & Brunch,Restaurants,Food,Cafes,Bakeries,,,,,,,,,,
#NAME?,Gigi's Cupcakes,1150 E Flamingo Rd,89119,36.11574948,-115.1389566,3,146,Bakeries,Food,Desserts,,,,,,,,,,,,
1jpYP-JNOEYCMIzP4OlGuQ,Braddah's Island Style,2330 S Rainbow Blvd,89146,36.14621857,-115.2424863,4,566,Ethnic Food,Hawaiian,Asian Fusion,Mexican,Specialty Food,Desserts,Restaurants,Food,,,,,,,
REXvfvEMPKbcLBD33y6fjA,Geisha Steakhouse,3751 E Desert Inn Rd,89121,36.1296013,-115.0927902,4,124,Restaurants,Steakhouses,Japanese,,,,,,,,,,,,
OdeDt-ceeNTu7LSTUqqBbA,Jubilee,"Bally's Las Vegas Hotel & Casino, 3645 Las Vegas Boulevard South",89109,36.114097,-115.167102,3.5,196,Nightlife,Performing Arts,Arts & Entertainment,Adult Entertainment,,,,,,,,,,,
kpLt4l5J5kbMD4oxQLC2aA,King & I,2904 Lake E Dr,89117,36.138984,-115.284115,4,176,Restaurants,Thai,,,,,,,,,,,,,
A7jbtXYFAZhErOW7xIQinA,Mother's Korean Grill,4215 Spring Mountain Rd,89102,36.1253808,-115.1959803,3,263,Barbeque,Restaurants,Korean,,,,,,,,,,,,
Tk7qCou7aYv_Z-K3a7NhhA,Shish Kabob House,"6620 W Flamingo Rd, Ste 7",89103,36.1150697,-115.2366549,4,369,Mediterranean,Middle Eastern,Restaurants,,,,,,,,,,,,
5c-b0ALS_DyLvRCGrlCTjA,Einstein Bros,6870 S. Rainbow Blvd,89118,36.064115,-115.241693,2.5,107,Bagels,Food,,,,,,,,,,,,,
8jLZiv202Cfx_RbTuPOwxQ,Best Foot Spa,4124 S Rainbow Blvd,89103,36.1129893,-115.2418918,4,378,Massage,Beauty & Spas,,,,,,,,,,,,,
_Jt596tjji2NG9tKhIsW2g,The Piercing Shop,"6985 W Sahara Ave, Ste 206",89117,36.1430021,-115.2441724,4.5,109,Piercing,Beauty & Spas,,,,,,,,,,,,,
C1jQ5CbszJkS_cyWgaRVGQ,Swish,"7875 W Sahara Ave, Ste 105",89117,36.14325986,-115.2627511,3.5,139,Sushi Bars,Restaurants,Japanese,Hot Pot,,,,,,,,,,,
MpovsyjkSkchD7ssAdEVKQ,Charlie Palmer Steak,3960 S Las Vegas Boulevard,89119,36.0909158,-115.1737761,4,364,Restaurants,Steakhouses,American (New),,,,,,,,,,,,
QpPyuxHVVJ6BtXd-FoCjgw,Marc Savard Comedy Hypnosis,"3663 Las Vegas Blvd S, Ste 360",89109,36.11072937,-115.1725074,4,189,Arts & Entertainment,Performing Arts,,,,,,,,,,,,,
0xzmIBsJQc5eUNLucFrZ0Q,Stratta,"Wynn Las Vegas, 3131 Las Vegas Blvd S",89109,36.12606526,-115.1721598,3.5,187,Restaurants,Italian,American (New),,,,,,,,,,,,
uE1sIGWRJwpLPN858FRPRw,Hershey's Chocolate World,"New York New York Hotel & Casino, 3790 Las Vegas Blvd S",89109,36.102415,-115.174568,3.5,236,Food,Specialty Food,Desserts,Candy Stores,Chocolatiers & Shops,,,,,,,,,,
gf68voXoY4LqSC_7Qq5t9A,Seafood Shack,"Treasure Island, 3300 Las Vegas Blvd S",89109,36.12536953,-115.1738217,3.5,161,Seafood,Fish & Chips,Restaurants,,,,,,,,,,,,
loSgYD9dHOsjjm7QCly5qw,KGB: Kerry's Gourmet Burgers,"Harrah's Las Vegas Hotel & Casino, 3475 Las Vegas Boulevard South",89109,36.1183787,-115.1726202,3.5,363,Restaurants,Burgers,,,,,,,,,,,,,
DYAorbxOyubUB_wtQRCdug,MadHouse Coffee,"8470 W Desert Inn Rd, Ste H-1",89117,36.129857,-115.275526,4,703,American (New),Restaurants,Food,Coffee & Tea,Sandwiches,Bakeries,,,,,,,,,
7ibuDLfx8gEhESAufYIySw,Sushi Mon,"9770 S Maryland Pkwy, Ste 3",89183,36.0119105,-115.1361159,4,841,Sushi Bars,Salad,Restaurants,Japanese,,,,,,,,,,,
yvqcZrHixuf_oIUW83xUcQ,Macayo's Mexican Restaurant,8245 W Sahara Ave,89117,36.1434972,-115.2707372,3,141,Mexican,Restaurants,,,,,,,,,,,,,
w55sCX7ZkLIJNhl_RhwjEg,Paradise Cantina,4480 Paradise Rd,89169,36.10882105,-115.1511756,3,142,Restaurants,Nightlife,Mexican,Bars,,,,,,,,,,,
bMrYaaAy62ppdS09na0RgQ,House of Pizza,"9430 W Lake Mead Blvd, Ste 9",89134,36.207074,-115.302342,4,103,Restaurants,Pizza,,,,,,,,,,,,,
UNMBMKI9FjnO9flxPxV-1w,Papa Pinny's Pizzeria,"8125 W Sahara Ave, Ste 170",89117,36.14282991,-115.2687521,4.5,135,Italian,Food,Restaurants,Chicken Wings,Pizza,Sandwiches,,,,,,,,,
G6GWOAPmCGSiMleJUzta8A,ABC Hyundai,6825 Redwood St,89118,36.0647781,-115.2388373,3,134,Car Dealers,Automotive,,,,,,,,,,,,,
hHe1mFDxxrtejXHfiysJJg,The Melting Pot,8704 W Charleston Blvd,89117,36.15953147,-115.2853291,4,211,Restaurants,Fondue,,,,,,,,,,,,,
lIdzQkSWB8HpX0ac4isKnA,Beli Andaluz Salon,"8975 W Charleston Blvd, Ste 190",89117,36.1576692,-115.2907728,5,100,Beauty & Spas,Hair Salons,,,,,,,,,,,,,
4OFeBLswQw8bJbkAtmYuAA,Vegas Discount Nutrition SUPERSTORE,"6180 N Decatur Blvd, Ste 104",89130,36.27234304,-115.2062281,5,146,Food,Shopping,Specialty Food,Vitamins & Supplements,Health Markets,,,,,,,,,,
1PpmlyzOiL_DYh0Ty4VC6A,Thomas & Mack Center,Swenson & Thomas and Mack Dr,89154,36.10489477,-115.1443684,4,105,Stadiums & Arenas,Arts & Entertainment,,,,,,,,,,,,,
VIH-XvIPwAh3NqLmDbvZKw,Pho at The Coffee Shop,"Treasure Island, 3300 S Las Vegas Blvd",89115,36.12472674,-115.1717649,2.5,113,Restaurants,Vietnamese,,,,,,,,,,,,,
vl2IZrNJEA8npSjqXbdwxw,BabyStacks Cafe,"2400 N Buffalo Dr, Ste 145",89128,36.2037425,-115.2598768,4,996,Breakfast & Brunch,American (Traditional),Restaurants,,,,,,,,,,,,
Wbi-x-1Nbn6LFCMOSN6F5Q,Cafe Rio,6575 N Decatur Blvd,89131,36.2794672,-115.2080128,2.5,163,Restaurants,Mexican,,,,,,,,,,,,,
AyEtowSGi9vx0-xFfrgjWw,Payard PÌ¢tisserie & Bistro,"Caesars Palace Las Vegas Hotel And Casino, 3570 Las Vegas Boulevard South",89109,36.11724286,-115.1750136,4,589,Food,Coffee & Tea,Desserts,Restaurants,French,,,,,,,,,,
R6jpwPBe9edy0P64uyaLKA,I Love Burgers,"The Palazzo, 3327 Las Vegas Blvd S",89109,36.12336781,-115.1707596,3,591,American (New),Burgers,Restaurants,,,,,,,,,,,,
By7P2EBBvhqoSDj8PnQa8g,D.O.C.G. Enoteca,"Cosmopolitan Hotel, 3708 Las Vegas Blvd S",89109,36.1092162,-115.1732212,3.5,340,Restaurants,Italian,,,,,,,,,,,,,
glTBzDHv9wNhEsZa4bQrOA,CatHouse Boutique Nightclub,3900 Las Vegas Blvd S,89119,36.0948217,-115.173216,3,176,Dance Clubs,Lounges,Nightlife,Bars,,,,,,,,,,,
z7GAft_JrFNmAH5xbVeYSA,Southwest Airlines,"5757 Wayne Newton Blvd, Terminal 1",89119,36.0838389,-115.148385,3,501,Airlines,Hotels & Travel,Transportation,,,,,,,,,,,,
azxeH9W14hzFnZyuOm8JdQ,Chophouse & Brewery,1198-1000 Sir Patrick Ave,89119,36.08588501,-115.137502,3,146,Bars,Steakhouses,Nightlife,Restaurants,Sports Bars,,,,,,,,,,
mvM_bCqtOhtNTQvaRRu0tw,Vegas Weddings,555 S 3rd St,89101,36.164489,-115.146675,4,207,Event Planning & Services,Wedding Planning,Shopping,Counseling & Mental Health,Bridal,Health & Medical,Wedding Chapels,Venues & Event Spaces,,,,,,,
SMPbvZLSMMb7KU76YNYMGg,ARIA Resort & Casino,3730 Las Vegas Blvd S,89109,36.107621,-115.17704,3.5,3385,Event Planning & Services,Arts & Entertainment,Hotels & Travel,Resorts,Casinos,Hotels,,,,,,,,,
om9EXJjK3UbBFhWWhCNr3g,Fulton Street Food Hall,Harrah's Las Vegas Hotel Casino,89109,36.128561,-115.1711298,3.5,104,Hotels & Travel,Cafes,Restaurants,Delis,Casinos,Japanese,Resorts,Arts & Entertainment,,,,,,,
qmIHO-6T_KEfPC9jyGDamQ,Jean Georges Steakhouse,3730 Las Vegas Blvd S,89109,36.10715237,-115.1771307,3.5,600,Steakhouses,Restaurants,,,,,,,,,,,,,
liGn7sPOvUuy3kcwbhRkbA,Zine Noodles Dim Sum,"The Palazzo, 3325 Las Vegas Blvd S",89109,36.124755,-115.168501,3,237,Restaurants,Chinese,Dim Sum,,,,,,,,,,,,
nDKcQkh8vZkY_u1kyww44g,Valentino,"The Venetian, 3355 Las Vegas Blvd S, Ste 106",89109,36.1214517,-115.1696112,3.5,157,Italian,Restaurants,,,,,,,,,,,,,
HfuIfYB_CxMAAJiEnxDl9w,Sushi Loca,6181 Centennial Center Blvd,89149,36.2725325,-115.2667252,3.5,340,Restaurants,Sushi Bars,Japanese,,,,,,,,,,,,
CqVdLcbyZzfAjeCD1qEBZQ,Kailyn's Diner,"3430 E Tropicana Ave, Ste 6",89121,36.10053115,-115.0999628,4,129,Diners,Burgers,American (Traditional),Breakfast & Brunch,Restaurants,,,,,,,,,,
1ZnVfS-qP19upP_fwOhZsA,Big Wong Restaurant,5040 Spring Mountain Rd,89146,36.126663,-115.20992,4,687,Restaurants,Taiwanese,Malaysian,Soup,Chinese,Asian Fusion,Noodles,,,,,,,,
kPV1DlXSkcXY5G8r2LLmEA,Ichabod's Lounge,3300 E Flamingo Rd,89121,36.11668407,-115.1035893,4,135,Lounges,American (Traditional),Bars,Piano Bars,Nightlife,Restaurants,,,,,,,,,
Tjbd3oTRXs9ZdItF_cLJMQ,CC Nail Spa,"9550 S Eastern Ave., Ste 150",89123,36.0146273,-115.117155,4.5,327,Nail Salons,Hair Removal,Beauty & Spas,,,,,,,,,,,,
3fPIRTnBhd81MixgS9YoMQ,California Pizza Kitchen,"3200 Las Vegas Blvd, Sp 1590",89109,36.127512,-115.1735621,3.5,150,Restaurants,American (New),American (Traditional),Pizza,,,,,,,,,,,
V9klA6JGT6Fz2UpVP_7sBw,The Buffet at Monte Carlo,3770 Las Vegas Blvd S,89109,36.10478136,-115.1746627,2.5,395,Restaurants,Buffets,American (Traditional),,,,,,,,,,,,
YXohNvMTCmGhFMSQsDZq1g,Sprinkles Cupcakes and Ice Cream,3545 S Las Vegas Blvd,89109,36.117485,-115.169832,3.5,560,Cupcakes,Food,Bakeries,Ice Cream & Frozen Yogurt,,,,,,,,,,,
I6EDDi4-Eq_XlFghcDCUhw,Joe's Seafood Prime Steak & Stone Crab,"The Forum Shop At Caesars Palace, 3500 Las Vegas Blvd S, Ste R-05",89109,36.11864532,-115.1736291,4.5,1691,Seafood,Restaurants,Steakhouses,,,,,,,,,,,,
oXoVJ0xKv82cBo9U6oEjlQ,Chayo Mexican Kitchen + Tequila Bar,3545 S Las Vegas Blvd,89109,36.11757443,-115.171528,3.5,919,Nightlife,Mexican,Bars,Restaurants,Local Flavor,,,,,,,,,,
0XoTT540HMB_5q4Exj8yGA,Four Seasons Hotel Las Vegas,3960 S Las Vegas Blvd,89119,36.09043541,-115.1742227,4.5,358,Food,Hotels,Hotels & Travel,Beer,Wine & Spirits,Event Planning & Services,,,,,,,,,
X5_NKyXPHOrgw1SgvW_UOg,Honolulu Cookie Company,"Grand Canal Shoppes at The Venetian\/The Palazzo, 3327 Las Vegas Blvd South",89109,36.12355675,-115.169201,4.5,142,Bakeries,Desserts,Food,,,,,,,,,,,,
DN_Mr2qDAWcr2A47-zr00w,Gallery Nightclub,3667 Las Vegas Blvd S,89109,36.1100668,-115.172501,3,115,Nightlife,Dance Clubs,,,,,,,,,,,,,
o597EK6uvR5RuPMZEwYCUg,JABBAWOCKEEZ,"MGM Grand, 3799 S Las Vegas Blvd",89109,36.1029162,-115.1697555,4,672,Arts & Entertainment,Performing Arts,,,,,,,,,,,,,
3IwCop28R1_L5jMv6AkL8Q,Jalisco Cantina,"3460 E Sunset Rd, Ste D",89120,36.07224754,-115.0990297,4,196,Restaurants,Mexican,,,,,,,,,,,,,
W8apgXmOxESpoL_EeogC5w,Fukumimi Ramen,"4860 S Eastern Ave, Ste 2",89119,36.1004644,-115.1174156,4,574,Restaurants,Ramen,Japanese,Noodles,,,,,,,,,,,
NAyXRFKfSn6b7fSvVI7M4A,Moorea Beach Club,3950 S Las Vegas Blvd,89119,36.0918639,-115.1751614,4,124,Active Life,Swimming Pools,,,,,,,,,,,,,
pLMPpaJ7whp86uL_3ezwMg,Stripburger,3200 Las Vegas Blvd S,89109,36.127647,-115.168354,4,744,Burgers,Restaurants,,,,,,,,,,,,,
wT06jGfphRjgNkGeJEKR5A,One Stop Wireless,"9890 S Maryland Pkwy, Ste 20",89183,36.0101637,-115.1352309,4.5,187,Mobile Phone Repair,IT Services & Computer Repair,Local Services,Shopping,Electronics Repair,Data Recovery,Computers,,,,,,,,
pHA8wyVcrkhI4wQ3mt6NHw,Which Wich,"2192 N Rainbow Blvd, Ste 100",89108,36.19917215,-115.2418088,3.5,180,Sandwiches,Restaurants,,,,,,,,,,,,,
5yZ1XmDcOEsElDeb9PlPDQ,Yagyu Ramen,"4355 W. Spring Mountain Rd, Ste 107",89102,36.1259293,-115.1976305,4,135,Ramen,Restaurants,Japanese,,,,,,,,,,,,
k2txj_3MKcZb07HbA9G45A,Pole Position Raceway,4175 S Arville St,89103,36.1142406,-115.2001559,3.5,119,Go Karts,Amusement Parks,Arcades,Arts & Entertainment,Active Life,,,,,,,,,,
WI1xBMN_rEaVPOL9Ad2gpQ,Tom Colicchio's Heritage Steak,3400 Las Vegas Blvd S,89109,36.12160849,-115.1739997,3.5,318,Steakhouses,Restaurants,Nightlife,Food,Beer,Wine & Spirits,American (Traditional),Wine Bars,Diners,Bars,,,,,
ZBrPiysQdu-Yi1gqWGzcmw,The Colosseum At Caesars Palace,3570 South Las Vegas Blvd,89109,36.1161559,-115.1750576,4.5,113,Nightlife,Music Venues,Arts & Entertainment,,,,,,,,,,,,
Vbal-AZnu2w6NttIKfdjDg,Desert Wind Coffee Roasters,7772 W Sahara Ave,89117,36.1437707,-115.2604055,5,196,Food,Internet Cafes,Coffee & Tea,,,,,,,,,,,,
yt1HMXF-dUfUEZQQtv16Ew,Nobu Hotel at Caesars Palace,"Caesars Palace Las Vegas Hotel And Casino, 3570 Las Vegas Boulevard South",89109,36.11685063,-115.1754954,3.5,157,Hotels,Arts & Entertainment,Hotels & Travel,Casinos,Event Planning & Services,,,,,,,,,,
cf6rtw3f05DlnJ7muIAEgA,Madame Tussauds Las Vegas,"3377 S Las Vegas Blvd, Ste 2001",89109,36.12121972,-115.1711914,4,432,Arts & Entertainment,Museums,,,,,,,,,,,,,
TTpgjbrSyxwHHzE5bIF-Rw,Namaste Indian Cuisine,953 E Sahara Ave,89104,36.1421289,-115.1423943,4,118,Indian,Restaurants,,,,,,,,,,,,,
rt-aQTkNfILbxBuATdJ1dA,American Coney Island Chili Dogs,301 Fremont St,89101,36.169971,-115.1427714,3.5,175,Hot Dogs,Restaurants,Fast Food,,,,,,,,,,,,
zTNFyAXMEkgVP-o_HTC2xw,Camelot Steakhouse,"Excalibur Hotel And Casino, 3850 Las Vegas Blvd S",89109,36.09864383,-115.1753811,3,169,Nightlife,American (Traditional),Restaurants,Bars,Steakhouses,,,,,,,,,,
fAlKTsfsUF6A5iujEI2Z1w,Off The Strip at the LINQ,3545 Las Vegas Blvd S,89109,36.1177747,-115.1725759,4,388,American (Traditional),Steakhouses,Nightlife,Restaurants,American (New),Comfort Food,Italian,Bars,,,,,,,
h4Q-uSoOIhMoIsOhat6l3A,Casa Don Juan  - Summerlin,1780 N Buffalo Dr,89128,36.19143581,-115.2597831,4,226,Bars,Mexican,Restaurants,Nightlife,,,,,,,,,,,
eV-5b1Bjtnn-QePN3t3taQ,Stir Krazy Mongolian Grill,"3345 Patrick Ln, Ste 100",89120,36.0785398,-115.1025225,4.5,118,Asian Fusion,Mongolian,Restaurants,,,,,,,,,,,,
NDOG19OtwBMza63cLcRUBg,VooDoo Zip Line,"RIO Hotel and Casino, 3700 W Flamingo  Rd",89103,36.1167451,-115.1857846,3.5,168,Active Life,Amusement Parks,,,,,,,,,,,,,
ufmokEGxGqEWIdvIVsNg_Q,Aria Mediterranean Restaurant,230 S Rainbow Blvd,89145,36.17139824,-115.2455138,4.5,107,Middle Eastern,Mediterranean,Persian\/Iranian,Restaurants,Vegetarian,,,,,,,,,,
sEjy65M87W8dLka1YD_-JQ,Las Vegas Mini Gran Prix Family Fun Center,1401 N Rainbow Blvd,89108,36.1875703,-115.2431509,3.5,125,Party & Event Planning,Go Karts,Active Life,Venues & Event Spaces,Event Planning & Services,Amateur Sports Teams,Amusement Parks,,,,,,,,
m8o3OrY0DWfqvk820EyrxQ,Computer Doctor BG,"4075 S Durango Dr, Ste 105B",89147,36.1154018,-115.2806748,5,101,Data Recovery,Computers,Shopping,IT Services & Computer Repair,Mobile Phone Repair,Mobile Phones,Local Services,Electronics Repair,,,,,,,
JuNt6TkuBrMqsljkenCOdw,The Birthday Suit,"7645 S Rainbow Blvd, Ste 101",89139,36.049654,-115.243624,4.5,403,Waxing,Beauty & Spas,Skin Care,Hair Removal,,,,,,,,,,,
FNe5PPA9pyj8FjcDefCBpg,Weera Thai,"3839 W Sahara Ave, Ste 9",89102,36.144252,-115.192834,4,530,Restaurants,Vegetarian,Thai,Food Delivery Services,Food,,,,,,,,,,
8C3i6-yHHriGE8abcacrgg,CSI: The Experience,"MGM Grand Hotel & Casino, 3799 Las Vegas Blvd S",89109,36.101915,-115.170861,2.5,166,Arts & Entertainment,,,,,,,,,,,,,,
H8qpFitIesth86zqR4cwYg,Jean Philippe Patisserie,3730 Las Vegas Blvd S,89109,36.10681461,-115.178175,4,1178,Specialty Food,Food,Restaurants,Bakeries,Chocolatiers & Shops,Desserts,,,,,,,,,
DxgSVufr_6y_Rc63CC17Zg,The Forum Shops at Caesars,3500 Las Vegas Blvd S,89109,36.119001,-115.1761257,4,576,Casinos,Shopping Centers,Fashion,Arts & Entertainment,Shopping,,,,,,,,,,
nnDLapJk1z2NJE0-XzwMlQ,Gallagher's Steakhouse,3790 Las Vegas Blvd S,89109,36.10386672,-115.1732663,4,838,Steakhouses,Restaurants,,,,,,,,,,,,,
4Ig2hk20mBj9rtwwO4wB_A,Chloe Spa,"911 N Buffalo Dr, Ste 109",89128,36.1819825,-115.2614307,4.5,100,Hair Removal,Tanning,Nail Salons,Skin Care,Day Spas,Beauty & Spas,Waxing,Spray Tanning,,,,,,,
hF1lFkVkhX55fZsy0Zj7Xg,Vegas Discount Nutrition Superstore,"7501 W Lake Mead Blvd, Ste 107",89128,36.19518,-115.2573615,5,110,Vitamins & Supplements,Health & Medical,Nutritionists,Shopping,Specialty Food,Health Markets,Food,,,,,,,,
sYfHxCqHpIX2HnDhw0JRAA,Ohjah Japanese Steakhouse Sushi & Hibachi,"8595 S Decatur Blvd, Ste 104",89139,36.03340548,-115.208426,4,393,Restaurants,Sushi Bars,Steakhouses,Japanese,,,,,,,,,,,
HPLB1Tr8ZB5UkD-2umKPdA,Fat Choy,595 E Sahara Ave,89104,36.1434734,-115.1468836,4,462,Restaurants,American (New),Asian Fusion,Chinese,,,,,,,,,,,
zsQk990PubOHjr1YcLkQFw,Dakao Sandwiches,"5700 W Spring Mountain Rd, #I",89146,36.1257411,-115.2191508,4,159,Restaurants,Sandwiches,Vietnamese,,,,,,,,,,,,
ev1SC6q8AolQWix0n577sg,Erotic Heritage Museum,3275 Sammy Davis Jr Dr,89109,36.1299669,-115.1744151,4,114,Museums,Arts & Entertainment,,,,,,,,,,,,,
e0CTLPxTnFEQSqQ1FJUqog,Fox Rent A Car Las Vegas,8801 South Las Vegas Blvd,89123,36.02929306,-115.1747513,2,798,Hotels & Travel,Car Rental,,,,,,,,,,,,,
KwKkNTxYGyo4H6pKZ6usSA,RC Willey,3850 South Town Center Dr,89135,36.1190724,-115.3254589,3,207,Home Services,Home & Garden,Electronics,Furniture Stores,Carpeting,Shopping,Appliances,Mattresses,,,,,,,
nS6QENxe6YODNrQ45bpC-A,Cafe Verdi,"3111 S Valley View Blvd, Bldg M, Ste 105",89102,36.1308989,-115.1907847,3,127,Restaurants,Pizza,Italian,,,,,,,,,,,,
Z0CQ9oJySxJpB8RbK6NUgg,Krispy Kreme Doughnuts,9791 S Eastern Ave,89123,36.0116514,-115.1193693,3.5,115,Donuts,Food,,,,,,,,,,,,,
9B5a8Kacujkhmb9kdeMX_A,LV Traffic Ticket Guy,"50 S Jones Blvd, Ste 102",89107,36.1732671,-115.2235972,4.5,144,Professional Services,Criminal Defense Law,Lawyers,Traffic Ticketing Law,,,,,,,,,,,
1WBVqmo7tgF0z0eGf4fPhQ,Pasta Idea,"7668 W Lake Mead Blvd, Unit 107",89128,36.1969444,-115.2621175,4.5,224,Restaurants,Italian,,,,,,,,,,,,,
SRCepG6PbMvwKcfIUjk8bQ,Cilantro Tacos,"2300 N Rainbow Blvd, Ste 108",89108,36.20220201,-115.2418546,4,152,Pizza,Restaurants,Mexican,,,,,,,,,,,,
7yYexN1Q5ShE_z1MH2TDTw,Sammy's LA Pastrami & Burgers,2191 E Tropicana Ave,89119,36.1000026,-115.1222548,3.5,344,Restaurants,Sandwiches,Fast Food,Burgers,,,,,,,,,,,
7FLHJMOYszFPCqK3tg5umA,Sakun Thai,1725 E Warm Springs Rd,89119,36.0571445,-115.1286093,3.5,129,Restaurants,Thai,Ethnic Food,Specialty Food,Food,Salad,,,,,,,,,
RQu_Bv7EFf5NKMnh_3E7Ag,Sedona Lounge,9580 W Flamingo Rd,89147,36.1156577,-115.301212,3.5,239,American (New),Restaurants,,,,,,,,,,,,,
e5Qw3r7mkwPLcdDzZzTeew,Lahaina Grill,4570 S Hualapai Way,89147,36.1064325,-115.3143315,3.5,161,Nightlife,Sports Bars,Bars,Sushi Bars,Hawaiian,Restaurants,,,,,,,,,
YVd2yYNjpiFg2s4ToMRmPA,Cinnaholic,"4165 S Grand Canyon Dr, Ste 103",89147,36.1140001,-115.3086145,4.5,166,Bakeries,Food,Vegan,Restaurants,Desserts,,,,,,,,,,
agGJSdMTRrkA6VrYMbC-SQ,Volcano Grille,"7150 S Durango Dr, Ste 110",89113,36.0580926,-115.2783844,4,195,Japanese,Restaurants,,,,,,,,,,,,,
Q36KIIiz5M2WIdXiMxEPOw,Peridot Sweets,"6475 S Rainbow Blvd, Ste 100",89118,36.0711758,-115.2429523,4.5,175,Desserts,Cupcakes,Food,Bakeries,,,,,,,,,,,
M3VCoUK9e9_VzhSFeBnFug,Precious Slut Tattoo Company,1013 E Charleston Blvd,89104,36.1592005,-115.1389593,4,112,Tattoo,Beauty & Spas,Piercing,,,,,,,,,,,,
Nw24O7pZTBKtQ9_DFUiRgA,Eis Cream Cafe,"9711 S Eastern Ave, Ste H1",89183,36.01292021,-115.1195835,4.5,204,Ice Cream & Frozen Yogurt,Desserts,Food,Restaurants,Cafes,Donuts,,,,,,,,,
ebEP_MZngIWKH0Ixobcqhg,Sunset Park,2601 E Sunset Rd,89120,36.0681973,-115.1122712,4,206,Active Life,Parks,Dog Parks,Fishing,Disc Golf,,,,,,,,,,
WI4_e2nbKHH-g-5TZ2SvpA,Downtown Summerlin,1980 Festival Plaza Dr,89135,36.15217656,-115.3333655,4,203,Shopping Centers,Shopping,,,,,,,,,,,,,
BbOx9i_kDJBnE9K2hyqBTg,Kahuku Poke and Hawaiian Barbecue,450 E Silverado Ranch Blvd,89123,36.0145699,-115.1534221,3.5,104,Hawaiian,Food,Seafood,Seafood Markets,Specialty Food,Poke,Restaurants,Asian Fusion,,,,,,,
aGDo7GDN5YLvpYykpSLkbw,Florida Cafe Cuban Bar & Grill,"Shalimar Hotel\/ Parquin & Restaurant, 1401 Las Vegas Blvd S",89104,36.155323,-115.149618,3.5,284,Restaurants,Nightlife,Bars,Cuban,Bakeries,Food,,,,,,,,,
MDVbJicJvqaO4WGx0vEabQ,Chili's,7530 S Las Vegas Blvd,89123,36.0528727,-115.171438,3,165,Restaurants,Bars,Tex-Mex,Nightlife,American (Traditional),,,,,,,,,,
Thx8WO-qqYJmEKssu4g9SA,Sushi On Rainbow,"6870 Spring Mountain Rd, Ste 6",89146,36.1268192,-115.2421504,3.5,151,Sushi Bars,Restaurants,Japanese,Buffets,,,,,,,,,,,
oxwGyA17NL6c5t1Etg5WgQ,Fry's,6845 S Las Vegas Blvd,89119,36.065085,-115.174592,2.5,354,Mobile Phones,Shopping,Computers,Electronics,,,,,,,,,,,
M-SS_Kr0zlC7v8kBSRa74g,Hokaido Sushi,"6015 S Fort Apache Rd, Ste 150",89148,36.0789703,-115.298266,4,259,Restaurants,Sushi Bars,,,,,,,,,,,,,
Ed47ZME7NcLTZeIBUYsdog,CREAM,"1980 Festival Plz Dr, Ste 165",89135,36.15061408,-115.3329226,4,250,Food,Ice Cream & Frozen Yogurt,Gelato,Desserts,,,,,,,,,,,
z9RSunhJggXQW5C4R36hkw,Buzz BBQ,"7121 W Craig Rd, Ste 101",89129,36.240299,-115.2499187,3.5,104,Restaurants,Barbeque,,,,,,,,,,,,,
YC8Llp3jlgKh8b-czHedHg,Chippendales,"The Rio All Suites Hotel & Casino, 3700 W Flamingo Rd",89103,36.118758,-115.186461,4,234,Arts & Entertainment,Adult Entertainment,Performing Arts,Nightlife,,,,,,,,,,,
81-wh-qHg2hvwHQBjC0Q-w,WorldMark Las Vegas - Boulevard,8601 South Las Vegas Blvd,89123,36.03350951,-115.1732504,3.5,121,Vacation Rentals,Hotels,Event Planning & Services,Resorts,Hotels & Travel,,,,,,,,,,
yMeyFt8ktPvzN0qFYLljMw,Dent Guys Las Vegas,2011 S Decatur Blvd,89102,36.1495893,-115.2071648,5,127,Mobile Dent Repair,Automotive,Body Shops,,,,,,,,,,,,
KhWl4Mwhm_Oqq0zIIz-0wQ,Carnival World & Seafood Buffet,"Rio All-Suite Hotel & Casino, 3700 W Flamingo Road",89103,36.11781274,-115.1874098,2.5,255,Buffets,Restaurants,Seafood,,,,,,,,,,,,
GWNmYFQw3WitfTPt5uGMvQ,Beijing Chinese Cuisine,"9255 S Eastern Ave, Ste 330-4",89123,36.0211192,-115.1190908,3.5,106,Restaurants,Chinese,,,,,,,,,,,,,
e7N0AW-sKkJmRIpEovxBAg,Aces & Ales,"2801 N Tenaya Way, Ste A",89128,36.2111234,-115.2496893,4,304,Bars,Sports Bars,American (New),Pubs,American (Traditional),Nightlife,Restaurants,,,,,,,,
4Q-P8lbk9d5zO_ireZFRPQ,Hair Experts Plus,7520 Westcliff Dr,89145,36.1746406,-115.2588668,5,147,Hair Stylists,Beauty & Spas,Barbers,Hair Salons,Hair Extensions,,,,,,,,,,
YavRvjbLsvh4DYDJPAfJIA,Pho Saigon 8,9055 S Eastern Ave,89123,36.0253639,-115.1189835,3.5,357,Restaurants,Vietnamese,Seafood,Noodles,,,,,,,,,,,
fUKi8LlQhzsGntuZjfvLWg,Rice Republic,2120 Festival Plaza Dr,89135,36.1493562,-115.3332506,3,230,Taiwanese,Restaurants,Chinese,,,,,,,,,,,,
DNSDAtD6uxQkoZkQe2v4ew,Curry Leaf Flavors of India,"5025 S Fort Apache Rd, Ste 101",89148,36.0979917,-115.2977607,4.5,269,Vegetarian,Indian,Restaurants,Beer,Wine & Spirits,Food,Vegan,,,,,,,,
#NAME?,Parsley Modern Mediterranean,4985 W Tropicana Ave,89103,36.1002691,-115.2092345,4.5,200,Sandwiches,Restaurants,Mediterranean,Middle Eastern,,,,,,,,,,,
#NAME?,Full House BBQ,"9890 S Maryland Pkwy, Unit D19",89183,36.0100493,-115.1353916,4,225,Restaurants,Filipino,Asian Fusion,Barbeque,,,,,,,,,,,
TT658qQinO6MBHP9q7rJ8w,Lola's A Louisiana Kitchen,1220 N Town Center Dr,89144,36.183143,-115.308819,4,259,Restaurants,Cajun\/Creole,,,,,,,,,,,,,
ngs16C2M_uTq2zXamltHVw,Jessie Rae's BBQ,5611 S Valley View Blvd,89118,36.0878609,-115.190509,4.5,233,Caterers,Farmers Market,Barbeque,Restaurants,Street Vendors,Food,Event Planning & Services,,,,,,,,
Lsr7V0QWYvrHnYo_RQbADA,Sweetie Eyebrow Threading & Henna Art,"Ocotillo Plaza Tropicana, 4912 S Eastern Ave, Ste 12B",89119,36.099811,-115.117925,5,180,Beauty & Spas,Tattoo,Henna Artists,Event Planning & Services,Hair Removal,,,,,,,,,,
R1PQEK6qvrZVC9qcWfKvDA,Braddah's Island Style,"4632 S Maryland Pkwy, Ste 17",89119,36.1050259,-115.1359481,4.5,149,Food,Desserts,Asian Fusion,Tex-Mex,Hawaiian,Restaurants,Mexican,,,,,,,,
KNTjauGqmib3sG1HWJyKEQ,E-Jo Korean Restaurant,"700 E Sahara Ave, Ste D",89104,36.1442771,-115.145359,4,187,Restaurants,Korean,,,,,,,,,,,,,
ZAqgv1gply0m_4fHAIffWA,Chronic Tacos,4321 W Flamingo Rd,89103,36.114539,-115.195684,3,101,Restaurants,Desserts,Mexican,Food,,,,,,,,,,,
BcW7Z9lPmOB_8eS2lEuOqQ,Musashi Japanese Steakhouse,3900 Paradise Rd,89169,36.1188384,-115.1544802,4,502,Japanese,Restaurants,Sushi Bars,Steakhouses,,,,,,,,,,,
9V9RlgqqnPFQJfF_e9Lnmw,Baidu China Bistro,"7625 S Rainbow Blvd, Ste 100",89139,36.049805,-115.244096,3.5,105,Chinese,Restaurants,,,,,,,,,,,,,
IZKjHtCuRlbhyD1WtGd8uA,Free Vegas Club Passes,,89120,36.08455775,-115.11874,5,400,Event Planning & Services,Party & Event Planning,Nightlife,Dance Clubs,,,,,,,,,,,
tWhEnh77yHXDU3fQB3wiRA,TGI Fridays,4500 W Tropicana Ave,89103,36.1045348,-115.2015974,2.5,175,American (Traditional),Restaurants,,,,,,,,,,,,,
_y1Et7f4NE6D1P1GzphlIw,Blaze Fast-Fire'd Pizza,6211 N Decatur Blvd,89130,36.27178056,-115.2071983,4.5,259,Salad,Pizza,Restaurants,Fast Food,Gluten-Free,,,,,,,,,,
JHyv6TwbNfIcjpos8_espA,Excellent Nails & Spa,"6015 S Fort Apache Rd, Ste 170",89148,36.07889021,-115.2985091,4.5,103,Nail Salons,Beauty & Spas,,,,,,,,,,,,,
31cOttU_tML5b6eLLXZfsQ,Go!ku,"4300 W Spring Mountain Rd, Ste 108",89102,36.12690085,-115.1978033,4,350,Restaurants,Japanese,Health & Medical,Specialty Food,Shaved Ice,Food,Ramen,Sushi Bars,Asian Fusion,Vegetarian,Noodles,,,,
cJWbbvGmyhFiBpG_5hf5LA,HofbrÌ_uhaus Las Vegas,4510 Paradise Rd,89169,36.10775703,-115.1516913,3.5,1149,German,Restaurants,Beer,Wine & Spirits,Beer Garden,Beer Bar,Nightlife,Food,Bars,,,,,,
Ane3EDKZ-AIT9uYnu33iVQ,Findlay Honda,7494 W Azure Dr,89130,36.27516079,-115.2577776,4.5,182,Car Dealers,Automotive,Auto Repair,,,,,,,,,,,,
9qcTpWYxrZrN13p1zAP6dA,Ping Pong Thai Restaurant,"2955 E Sunset Rd, Ste110",89120,36.07114026,-115.1106206,3.5,193,Vegan,Thai,Restaurants,Vegetarian,,,,,,,,,,,
gK_8-iwivfBEuouSWyzMBQ,Wing Heaven,"7785 N Durango Dr, Ste 135",89131,36.30261064,-115.2821167,3.5,115,Restaurants,Chicken Wings,Seafood,,,,,,,,,,,,
BQJokxJ4y4s57i7Mn65pvA,Hecho en Vegas,3799 Las Vegas Blvd S,89109,36.1022543,-115.1699583,3.5,201,Mexican,Restaurants,,,,,,,,,,,,,
BxKe9Xt_fN6qBzrTofHuEQ,AMC Town Square 18,6587 Las Vegas Blvd S,89119,36.06818524,-115.1785193,3.5,486,Cinema,Arts & Entertainment,,,,,,,,,,,,,
2s2ww6WaulfOEI16s1uyDg,Cafe Darak,"8665 W Flamingo Rd, Ste 105",89147,36.1145217,-115.281079,4,265,Food,Coffee & Tea,,,,,,,,,,,,,
zRqi6L1u-YmmVAHjeUbGMQ,SkinnyFATS,"8680 W Warm Springs Rd, Ste 170",89148,36.05628236,-115.2804281,4.5,764,Food,Breakfast & Brunch,American (New),Juice Bars & Smoothies,Restaurants,,,,,,,,,,
SzzrUeJGnl_LQAJXMK8wQw,Omoide Noodles & Bowls,7745 S Rainbow Blvd,89139,36.0477111,-115.2435475,3.5,223,Ramen,Noodles,Restaurants,Japanese,Soup,,,,,,,,,,
FzvFBy5_qsoOz99w_AAD4w,WTPho,"8180 Blue Diamond Rd, Ste 110",89178,36.0206629,-115.2672312,4,166,Restaurants,Vietnamese,,,,,,,,,,,,,
54WM5coZonA0izd2y04p_A,Famous Dave's Barbeque,9695 W Flamingo Rd,89147,36.11418074,-115.3039206,3.5,168,Barbeque,Restaurants,Sandwiches,,,,,,,,,,,,
mDoLWEOFmxcQ5TAPqxoJLg,Sagos Baja Tavern & Lounge,4790 S Fort Apache Rd,89147,36.1020213,-115.2967084,4,102,Gastropubs,Bars,American (New),Restaurants,Nightlife,,,,,,,,,,
a_EGJWEgvGAiPtuATh3Kow,A Spa,"9555 S Eastern Ave, Ste 145",89123,36.016056,-115.1195151,4,116,Massage,Beauty & Spas,Reflexology,Health & Medical,,,,,,,,,,,
ruFgApclJ4Mo3qEUwcklyA,West Coast Movers,3555 West Quail Ave,89118,36.0951221,-115.1883121,1,124,Movers,Self Storage,Local Services,Home Services,Packing Services,,,,,,,,,,
zx_xDVaVQlE3eDoFFENkow,Go Gadgets iPhone Repair,"633 N Decatur Blvd, Ste G",89107,36.17968927,-115.20654,4.5,177,IT Services & Computer Repair,Shopping,Local Services,Mobile Phone Repair,Electronics Repair,Mobile Phones,,,,,,,,,
7wst00GRGs8qsuf2QtsnaA,Champagne's,3557 S Maryland Pkwy,89169,36.1248195,-115.1376902,4,108,Karaoke,Nightlife,Dive Bars,Bars,,,,,,,,,,,
Zmfq3DVhHdtVChhSxzoUHw,Panna Thai Restaurant,"6015 S Fort Apache Rd, Ste 100",89148,36.0789362,-115.2985524,4,325,Thai,Restaurants,,,,,,,,,,,,,
ZAuAwz1ijuydn5yL3q3rzA,Japanese Curry Zen,"5020 Spring Mountain Rd, Ste 1",89146,36.12681961,-115.2094193,4.5,680,Japanese,Restaurants,,,,,,,,,,,,,
SwAZBCyFtVo_8vkRbJhdkA,Culinary Dropout,"Hard Rock Hotel Casino, 4455 Paradise Rd",89169,36.108808,-115.152708,4,641,Bars,American (New),Restaurants,Nightlife,Venues & Event Spaces,Event Planning & Services,Fondue,,,,,,,,
f4oCyoQczJvmli00m2g8aQ,WHASN Meadows,"9120 W Post Rd, Ste 200",89148,36.0744873,-115.291269,2.5,110,Doctors,Obstetricians & Gynecologists,Health & Medical,,,,,,,,,,,,
hCsJv234v62MgdsUU1j8dQ,Big Sur Oyster Bar,"South Point Hotel & Casino, 9777 S Las Vegas Blvd",89183,36.0121912,-115.1739932,3.5,203,Restaurants,Seafood,,,,,,,,,,,,,
1CWMNSTRMejdSyXBG2chNg,Fireside Restaurant & Tavern,1785 E Cactus Ave,89183,35.999495,-115.128018,4,112,Nightlife,American (New),Restaurants,Bars,Gastropubs,,,,,,,,,,
w6zW6gIyg1sI5V6Wag_SYg,Teppan Bento,"467 E Silverado Ranch, Unit 125",89183,36.0125177,-115.1526505,4.5,234,Teppanyaki,Japanese,Restaurants,Asian Fusion,,,,,,,,,,,
Ffhe2cmRyloz3CCdRGvHtA,Earl of Sandwich,"Palms Casino Resort, 4321 W. Flamingo Rd",89103,36.114345,-115.195589,4,204,Event Planning & Services,Food,Caterers,Sandwiches,Restaurants,Food Delivery Services,,,,,,,,,
B_WggEKFq-ZFNui8CHPYvA,Soho SushiBurrito,"2600 W Sahara Ave, Ste 115",89102,36.145214,-115.176443,4.5,553,Asian Fusion,Restaurants,Mexican,Japanese,,,,,,,,,,,
3g8zzg_5__kXMUM-8F6V1w,Playboy Club,"Palms Casino Resort, 4321 W Flamingo Rd",89103,36.114539,-115.195684,3,224,Nightlife,Bars,Casinos,Arts & Entertainment,Adult Entertainment,,,,,,,,,,
WmLTIN4qzZ8SjpPxsPH27Q,Windy City Beefs N Dogs,"7500 W Lake Mead Blvd, Ste 10",89128,36.1974376,-115.257775,4.5,256,Hot Dogs,Restaurants,,,,,,,,,,,,,
64_y0ZgHl34uOzHNnSnd1g,Bonjour Euro Bakery,"4012 S Rainbow Blvd, Ste J",89103,36.1161569,-115.2418001,3.5,158,Bakeries,Food,,,,,,,,,,,,,
3ZHyw0d8mk0HOEP7v4fW1A,Krung Thai Restaurant,4130 S Decatur Blvd,89103,36.1145279,-115.2076743,4,155,Restaurants,Thai,,,,,,,,,,,,,
IlsxDj7OhvFKge4lcZkX8g,Adventure Combat Ops,4375 S Valley View Blvd,89103,36.1102279,-115.1913871,5,180,Active Life,Challenge Courses,,,,,,,,,,,,,
X11JfeIVH9d6qMrDqA-N7A,Scooter's Pub,6200 S Rainbow Blvd,89118,36.0758928,-115.2421223,3.5,136,Nightlife,Bars,Restaurants,American (Traditional),Sports Bars,,,,,,,,,,
iw9p7E4bMe1YW-APcFGjgQ,PKWY Tavern,9820 W Flamingo Rd,89147,36.11580764,-115.3062742,3,290,Lounges,Restaurants,Sports Bars,Food,Nightlife,Beer,Wine & Spirits,American (Traditional),Bars,,,,,,
UPmIFPMXhnfHDkaH9YzrlQ,Sun Auto Service,"9530 W Tropicana Ave, Ste A",89147,36.1008734,-115.3000661,4,110,Automotive,Oil Change Stations,Auto Repair,Towing,,,,,,,,,,,
UK2Onb024Azao0DrTHSvhg,Yanni's Greek Grill,"9620 S Las Vegas Blvd, Ste E-7",89123,36.01483757,-115.171263,4.5,223,Specialty Food,Greek,Food,Restaurants,Ethnic Food,,,,,,,,,,
rOqY1Vj8sQ6kL9XLVQRslw,The Cupcakery,"9680 S Eastern Ave, Ste 100",89123,36.01355679,-115.1183349,4,300,Desserts,Bakeries,Food,Chocolatiers & Shops,Specialty Food,,,,,,,,,,
ukMx8YJRoPWv1JSJAwjuWg,Windy City Wash and Wax,4790 Polaris Ave,89103,36.10297897,-115.1850694,4.5,249,Automotive,Auto Detailing,Car Wash,,,,,,,,,,,,
xd-AnaGxEMKT2zTEheP6_w,Tony Marc's Eats,"6700 W Charleston Blvd, Unit C",89146,36.15962,-115.2425364,4,107,Restaurants,American (Traditional),American (New),,,,,,,,,,,,
y8d90Pt16Nip-B5UXWBP-w,Yard House Red Rock Resort,11011 W Charleston Blvd,89135,36.15679595,-115.3343868,4,660,Nightlife,Bars,American (Traditional),Restaurants,Beer,Wine & Spirits,Vegetarian,Steakhouses,Cocktail Bars,American (New),Seafood,Food,Asian Fusion,Wine Bars,Beer Bar
QteBKpZTRa2dJ3u7MLiXww,Los Tacos,1710 E Charleston Blvd,89104,36.1584563,-115.1275613,4,215,Mexican,Restaurants,,,,,,,,,,,,,
nZI9Lvo_qkJH5epaFJ3XvA,iRepairs Wireless,"3735 Spring Mountain Rd, Ste 202",89102,36.1261877,-115.1891516,4.5,124,IT Services & Computer Repair,Electronics Repair,Local Services,,,,,,,,,,,,
#NAME?,Regal Cinemas Red Rock 16 & IMAX,11011 West Charleston Blvd,89135,36.1551327,-115.334816,4,207,Ticket Sales,Cinema,Arts & Entertainment,,,,,,,,,,,,
eMKqAItLbazgUT8xokz7fw,Wine 5 Cafe,"3250 N Tenaya Ave, Ste 110",89129,36.2198728,-115.2511034,4.5,212,Specialty Food,American (New),African,Restaurants,Food,,,,,,,,,,
QpXBPotu6i__51lFk-5yMA,The Big Apple Coaster and Arcade,3790 Las Vegas Blvd S,89119,36.10200402,-115.1738604,3,275,Active Life,Amusement Parks,Arts & Entertainment,Arcades,,,,,,,,,,,
sHsjBV5_kuuC2aU2PuSlUg,Jaburritos,"2600 W Sahara Ave, Ste 115",89102,36.14513018,-115.1764711,4.5,189,Asian Fusion,Mexican,Restaurants,Japanese,Sushi Bars,,,,,,,,,,
mmMihsgFSb_7fp5rAXiW_A,Subaru of Las Vegas,5385 W Sahara Ave,89146,36.1438225,-115.2150576,4,127,Auto Repair,Auto Parts & Supplies,Automotive,Car Dealers,,,,,,,,,,,
2Y0-nrSZNsLRStyupZgM7g,Courtyard Cafe,"The Orleans Hotel and Casino, 4500 W Tropicana Ave",89103,36.10218574,-115.2014995,3,138,American (Traditional),Restaurants,Sandwiches,,,,,,,,,,,,
a9k9MQrr5KFyMD7_Lnwrhw,USA Auto Service,4810 S Ft Apache,89147,36.10095871,-115.2983741,4.5,285,Oil Change Stations,Smog Check Stations,Automotive,Auto Repair,,,,,,,,,,,
djbZ5uQPKw9N4Dq9QXhdNw,Twin Peaks,"3717 Las Vegas Blvd., Ste 285",89109,36.10882248,-115.1724216,3.5,304,Nightlife,American (New),Bars,American (Traditional),Sports Bars,Restaurants,,,,,,,,,
H_AEozeQfFrn6VJGDJEcKA,Southern Hills Hospital and Medical Center,9300 W Sunset Rd,89148,36.072163,-115.295384,3,131,Medical Centers,Hospitals,Health & Medical,Doctors,Emergency Rooms,,,,,,,,,,
SU56w479vUfFHsvmvQIf7A,India Oven,2218 Paradise Rd,89104,36.1446996,-115.1551759,3.5,135,Restaurants,Pakistani,Indian,,,,,,,,,,,,
OfErL1qfNmgTF4375veOPA,Christopher Moving,3750 W Tompkins Ave,89103,36.1045511,-115.1894895,5,148,Home Services,Movers,Local Services,,,,,,,,,,,,
ghDNHpqETRJGxG5iUtaZtw,Lobster ME,"Grand Canal Shoppes at The Venetian, 3377 South Las Vegas Blvd",89109,36.12154781,-115.1695057,3.5,418,Restaurants,Seafood,,,,,,,,,,,,,
OKZkEXzJt0XIamHRRTX-8g,Carlo's Bakery,3355 Las Vegas Blvd,89109,36.12297965,-115.1706308,3,717,Cupcakes,Desserts,Bakeries,Food,,,,,,,,,,,
xUv4cIGoL5F279yp5dzp4Q,Infinity Heating & Cooling,"5460 S Cameron St, Ste 103",89118,36.09114572,-115.2021752,5,118,Contractors,Heating & Air Conditioning\/HVAC,Home Services,,,,,,,,,,,,
RoaqURAVEs5D1-vd5t8wcA,Airline Shuttle,5010 Valley View Blvd,89118,36.0985373,-115.1893874,1.5,162,Transportation,Airport Shuttles,Airports,Hotels & Travel,,,,,,,,,,,
zNJL_FKlQey0B9LuoHT3Hw,Sundance Helicopters,5596 Haven St,89119,36.08738154,-115.1681998,4.5,122,Event Planning & Services,Tours,Hotels & Travel,Wedding Planning,Transportation,Airlines,Travel Services,,,,,,,,
U_svUGP1XhMTC0_GTZXpGA,Mad Hatter Cupcakes,"4195 S Grand Canyon Pkwy, Ste 105",89147,36.1136929,-115.3075716,3.5,191,Food,Desserts,Bakeries,,,,,,,,,,,,
BZSzoBFhkXBUQTx4Cgl5Aw,Coco's Bakery Restaurant,169 E Tropicana Rd,89119,36.1003585,-115.1652072,4,235,American (Traditional),Food,Restaurants,Bakeries,,,,,,,,,,,
k8BqCejnaMlw7aoVthvqyw,The Bootlegger Italian Bistro,"7700 Las Vegas Blvd S, Ste 1",89123,36.04899216,-115.1715393,4,597,Restaurants,Italian,,,,,,,,,,,,,
q5sa3zjAwIYMAgfPVxOdHw,Khoury's Mediterranean Restaurant,"6115 S Fort Apache Rd, Ste A100",89148,36.0771893,-115.2985719,4,267,Mediterranean,Restaurants,Greek,Middle Eastern,,,,,,,,,,,
JAmQCmczUclNUfZjkNdjQA,High Roller,"The Linq Las Vegas, 3545 Las Vegas Blvd S",89109,36.11746149,-115.1681801,4,1144,Psychics & Astrologers,Active Life,Amusement Parks,Arts & Entertainment,,,,,,,,,,,
6H8xfhoZ2IGa3eNiY5FqLA,Trattoria Nakamura-Ya,"5040 W Spring Mountain Rd, Ste 5",89146,36.12662053,-115.2099519,4,320,Italian,Japanese,Restaurants,,,,,,,,,,,,
ypfFfR3-PbtoslIhohNstw,Lee's Korean BBQ,"6820 Spring Mountain Rd, Ste 110",89146,36.1267945,-115.2410377,3.5,341,Local Services,Restaurants,Korean,,,,,,,,,,,,
bNH0khpSY8K-LqviItLclA,Handy,,89101,36.1697096,-115.1236952,4,138,Home Services,Home Cleaning,Handyman,,,,,,,,,,,,
03icrim6SfEQJlejDMbzsA,Pho Saigon,"6820 Spring Mountain Rd, Ste C111",89146,36.1269027,-115.2411278,4,100,Korean,Sandwiches,Restaurants,Vietnamese,,,,,,,,,,,
#NAME?,French Market Buffet,4500 W Tropicana Ave,89103,36.10272319,-115.2025938,3,301,Restaurants,Buffets,,,,,,,,,,,,,
dHVeXpn7WfEd6WW5TSK9EQ,Barks & Bubbles Grooming,"1591 N Buffalo Dr, Ste 150",89128,36.188184,-115.2606669,4.5,108,Pet Groomers,Pet Services,Pets,,,,,,,,,,,,
2HxaDXZmAOH6LiuzGgNdPA,Farmer Boys,7010 S. Rainbow Blvd,89118,36.06107447,-115.2421773,3,120,Burgers,Sandwiches,Restaurants,Breakfast & Brunch,,,,,,,,,,,
eStn1HCGNcKiLXc0pfvZxg,Bell Trans,1900 Industrial Rd,89102,36.149339,-115.161916,2.5,496,Transportation,Limos,Taxis,Hotels & Travel,Airport Shuttles,Tours,,,,,,,,,
364hhL5st0LV16UcBHRJ3A,Yonaka Modern Japanese,"4983 W Flamingo Rd, Ste A",89103,36.114935,-115.209737,4.5,801,Tapas\/Small Plates,American (New),Japanese,Sushi Bars,Restaurants,,,,,,,,,,
EwxhzR-VghhMsRObXLMitw,Lou's Diner,431 S Decatur Blvd,89107,36.167739,-115.205902,4.5,111,Restaurants,Diners,American (Traditional),Breakfast & Brunch,,,,,,,,,,,
eEnNw3_hBvxcFHyr23kAuA,Hard Rock Hotel & Casino,4455 Paradise Rd,89169,36.0971945,-115.1466648,3,1831,Arts & Entertainment,Casinos,Hotels & Travel,Hotels,Nightlife,Event Planning & Services,Bars,,,,,,,,
pHJu8tj3sI8eC5aIHLFEfQ,Nora's Italian Cuisine,5780 W Flamingo Rd,89103,36.1148522,-115.2203694,4,973,Italian,Pizza,Restaurants,Nightlife,Cocktail Bars,Bars,,,,,,,,,
gAqckPMHgXQOnJ0G3OPgFw,Popularity Gourmet Popcorn,"6640 N Durango Dr, Ste 140",89149,36.2811604,-115.2862151,5,104,Desserts,Popcorn Shops,Food,Specialty Food,,,,,,,,,,,
gwYt_q3Ob7aQJIefIBsZiQ,Raising Cane's,7135 S Rainbow Blvd,89118,36.058716,-115.2433571,4,211,Restaurants,Fast Food,American (Traditional),Chicken Wings,Chicken Shop,,,,,,,,,,
gZBhQmqZy9aIq3HID8Vjkw,Enoteca San Marco,"The Venetian, 3355 Las Vegas Blvd S",89109,36.1407035,-115.1823137,3.5,249,Italian,Restaurants,,,,,,,,,,,,,
OHXnDV01gLokiX1ELaQufA,Teriyaki House,6181 S Rainbow Blvd,89118,36.0765456,-115.2432137,4.5,104,Restaurants,Japanese,,,,,,,,,,,,,
Qf6EnIzKqhXQg4YNkVAqHQ,Red Lobster,200 S. Decatur Blvd.,89107,36.1716799,-115.2065845,3,169,American (Traditional),Seafood,Restaurants,,,,,,,,,,,,
XDYCIRENiT2doRZgwNJ3SA,Pepe's Tacos,"4190 S Rainbow Blvd, Ste 1",89103,36.11254551,-115.2426152,2.5,158,Restaurants,Mexican,,,,,,,,,,,,,
RhEvP5flF6KoPriMHmVYGg,Red Rock Casino Resort & Spa,11011 W Charleston Blvd,89135,36.155964,-115.333854,3.5,1209,Beauty & Spas,Arts & Entertainment,Casinos,Day Spas,Hotels,Event Planning & Services,Hotels & Travel,,,,,,,,
ZXfMiPsPv-cH7GMQ-5-mhA,Montana Meat Company,6371 Centennial Center Bl,89149,36.2739112,-115.2692364,3.5,136,Steakhouses,Restaurants,,,,,,,,,,,,,
atVh8viqTj-sqDJ35tAYVg,Beach Cafe,7750 S Jones Blvd,89139,36.0484755,-115.2243771,3.5,232,Breakfast & Brunch,Diners,Restaurants,Burgers,,,,,,,,,,,
b1WGIdd_oSwGYZtC769Shw,Rachel's Kitchen,"7010 N Durango Dr, Ste 140",89149,36.28842233,-115.2865495,4,268,Juice Bars & Smoothies,Food,Breakfast & Brunch,Sandwiches,American (New),Restaurants,,,,,,,,,
Lc31HveLiuaxVEt0cvZO7Q,O Face Doughnuts,"124 S 6th St, Ste 140",89101,36.16785039,-115.1405528,4,263,Coffee & Tea,Food,Bakeries,Donuts,,,,,,,,,,,
DXn79Dzv8kpsMcNNKZHuRA,Cardenas Market,4700 Meadows Ln,89107,36.1712675,-115.2049261,4,159,Food,Ethnic Food,Beer,Wine & Spirits,Grocery,Specialty Food,Imported Food,,,,,,,,
DKXUkIrFnMUMF535gf-dPA,Frijoles & Frescas Grilled Tacos,4811 S Rainbow Blvd,89103,36.10100467,-115.243461,4.5,120,Mexican,Event Planning & Services,Caterers,Restaurants,,,,,,,,,,,
D_mVIUu5XyrHz-7U_z_pDg,Nove Italiano,4321 W Flamingo Rd,89103,36.114483,-115.194814,4,423,Restaurants,Italian,,,,,,,,,,,,,
939j88ceB05Te3D7kQPwSA,VooDoo Rooftop Nightclub & Lounge,3700 W Flamingo Rd,89103,36.11628032,-115.1861043,3.5,433,Bars,Nightlife,Restaurants,Dance Clubs,Lounges,Steakhouses,,,,,,,,,
uDeycmwCy26ALJHeG3SsEA,Buffalo Wild Wings,"6640 N. Durango Dr, Ste 110",89149,36.28123174,-115.2861511,3,189,Chicken Wings,Bars,Sports Bars,Restaurants,American (Traditional),Nightlife,,,,,,,,,
HsrEbWCg8K06pUhx469uSw,Donut Hut,"3242 E Desert Inn Rd, Ste 17",89121,36.1302895,-115.1033497,4.5,105,Donuts,Food,,,,,,,,,,,,,
VgrFPYtK6HGUEJVc4srpWw,Pho Annie,"8390 S Rainbow Blvd, Ste 110",89139,36.0360346,-115.2429957,4,355,Restaurants,Vietnamese,,,,,,,,,,,,,
pi1DHl64UzYXkVuSwvsUwg,Tropicana Cinemas,3330 E Tropicana Ave,89121,36.1009153,-115.1027506,3.5,124,Arts & Entertainment,Cinema,,,,,,,,,,,,,
FLMxWQO-ckCQmGZhU9OQgw,Carnival World Buffet,"Rio All-Suite Hotel & Casino, 3700 W Flamingo Road",89103,36.11788994,-115.1893946,3.5,1374,Restaurants,Buffets,Food,Breakfast & Brunch,,,,,,,,,,,
h_g5HV6Fw2rinZ3xqFwygw,Seasons Buffet,3333 Blue Diamond Rd,89139,36.0412834,-115.1833103,3.5,255,Buffets,Restaurants,,,,,,,,,,,,,
qRymrsLmlA34bC8PvNoujg,Market Grille Cafe,7070 North Durango Dr,89149,36.2892014,-115.2873343,4,377,Caterers,Greek,Mediterranean,Event Planning & Services,Restaurants,,,,,,,,,,
lokPfoken16iTeAJ2PAwmQ,Feast Buffet,4949 N Rancho Dr,89130,36.2498922,-115.2441383,2.5,109,Food,Restaurants,Buffets,,,,,,,,,,,,
BkwCSU4RrH0qDHthDK8mtQ,Jennifer Romas' Sexxy,", 3000 Paradise Rd",89109,36.1362575,-115.1512526,5,126,Performing Arts,Event Planning & Services,Resorts,Hotels,Arts & Entertainment,Hotels & Travel,,,,,,,,,
zNOfHgMWZtG1vVA3Ca9fCQ,Paris Eiffel Tower,3655 Las Vegas Blvd S,89162,36.11289,-115.171282,4,335,Landmarks & Historical Buildings,Local Flavor,Public Services & Government,,,,,,,,,,,,
gBQH64vIkA-kIDFGM290dw,Sultan's Grill,"1910 Village Center Cir, Ste 7",89134,36.19310978,-115.3042087,3.5,110,Restaurants,Greek,Mediterranean,,,,,,,,,,,,
E0OKctOhZpUQgwUUBc_RwA,The Habit Burger Grill,"4830 Blue Diamond Rd, Ste 130",89139,36.0334485,-115.2070141,4,136,Burgers,Salad,Restaurants,Food,Sandwiches,Food Trucks,,,,,,,,,
h5qBxa_L-pIdNSOBQxTNGQ,Brothers Italian Bistro,7575 S Rainbow Blvd,89139,36.050869,-115.2441452,2.5,147,Pizza,Sandwiches,Burgers,Restaurants,,,,,,,,,,,
Ipkl7KtlqxCe8bMMkwHwPQ,50's Diner Omelet House,"3050 E Desert Inn Rd, Ste 140",89121,36.1305272,-115.1084585,4,217,Burgers,Restaurants,Comfort Food,Breakfast & Brunch,Diners,American (Traditional),,,,,,,,,
ZjdcfPbkBVtMnXm8jLSV_A,Tiffany's Cafe,1700 Las Vegas Blvd S,89104,36.150704,-115.15304,4,106,American (Traditional),Diners,Cafes,Breakfast & Brunch,Restaurants,,,,,,,,,,
mnU3iGsL55MCWXiWV3AcAQ,In-N-Out Burger,5690 Centennial Center Blvd,89149,36.2652651,-115.2570317,4.5,139,Fast Food,Burgers,Restaurants,,,,,,,,,,,,
iI3jcwudiZYMVUeRPy-DwQ,Curry Zen,"7835 S Rainbow Blvd, Ste 9",89139,36.04547243,-115.2440396,4,140,Restaurants,Japanese,,,,,,,,,,,,,
Q7m8G4579-XYKV3LMW8V7g,Kaizen Fusion Roll and Sushi,"4480 S Paradise Rd, Ste 900",89109,36.10846152,-115.1519108,4,595,Sushi Bars,Japanese,Seafood,Restaurants,,,,,,,,,,,
kZspuWnM0Y-Losvk2Rl0lA,Cous Cous Mediterranean Cafe,"450 Fremont St, Unit 123",89101,36.17005539,-115.1408463,3.5,224,Restaurants,Coffee & Tea,Mediterranean,Halal,Food,Vegetarian,Burgers,Cafes,Sandwiches,,,,,,
n1Ng1q300iLHYZELtOd5FA,BOA Steakhouse,"The Forum Shops At Caesars, 3500 Las Vegas Blvd S",89136,36.175,-115.136389,4,190,Steakhouses,Restaurants,,,,,,,,,,,,,
OYHpqY6-3C-wXR-uPbHhwA,Honey Cakes Cafe,"6475 N Decatur Blvd, Ste 135",89131,36.2769543,-115.2077936,3.5,214,Cafes,French,Restaurants,American (Traditional),Burgers,Breakfast & Brunch,,,,,,,,,
D8a2usm9b-j89W9IrJ_Evw,Satay Thai Bistro & Bar,"3900 Paradise Rd, Ste N",89169,36.1188384,-115.1544802,4,468,Restaurants,Thai,Chinese,Malaysian,,,,,,,,,,,
S3-Zmeg2FALMsx9GhHJ5HQ,Tea Time CafÌ©,"5590 Painted Mirage Rd, Ste 130",89149,36.2626334,-115.2561601,4.5,246,Food,Coffee & Tea,Specialty Food,Juice Bars & Smoothies,Macarons,,,,,,,,,,
oGyy1xSFsPAnULtdO6HkZA,TabÌ¼ Ultra Lounge,"MGM Grand, 3799 Las Vegas Blvd S",89109,36.12553225,-115.1456854,3,125,Bars,Nightlife,Adult Entertainment,Lounges,Dance Clubs,,,,,,,,,,
eBj_YyJU5jVu6tbZCkdtDA,Brio Tuscan Grille,"420 S Rampart Blvd, Ste 180",89145,36.1671901,-115.2855925,4,357,Bars,Restaurants,Nightlife,Cocktail Bars,Italian,Pizza,,,,,,,,,
ppHkkuDvvH8g1Enz6F8OJA,Divine Eatery,"7181 N Hualapai Way, Ste 115",89166,36.29145709,-115.3158073,4,212,Burgers,Breakfast & Brunch,Restaurants,American (New),,,,,,,,,,,
GCRvrxMSC1nzShyM4Y-guQ,Body English,"Hard Rock Hotel & Casino, 4455 Paradise Rd",89169,36.109519,-115.153331,3.5,261,Lounges,Nightlife,Dance Clubs,Bars,,,,,,,,,,,
W-YhRJOSezqESSas-oLArw,"Red, White & Blue Restaurant","Mandalay Bay Hotel & Casino, 3950 S Las Vegas Blvd",89119,36.090754,-115.1766701,2.5,225,American (Traditional),Restaurants,,,,,,,,,,,,,
ZxR9HNk0b7ZIq8kMiDEIDw,Hard Rock Cafe,4475 Paradise Road,89109,36.1084453,-115.1526346,3.5,172,Restaurants,American (Traditional),Nightlife,Arts & Entertainment,Music Venues,Burgers,American (New),,,,,,,,
DflycrGzj71jHOHWAe0-Bg,Advantage Rent-A-Car,7135 Gillespie St,89136,36.175,-115.136389,2,183,Car Rental,Hotels & Travel,,,,,,,,,,,,,
cyzOijFJ82cae6qH6L8vuw,Arawan Thai Bistro and Dessert,"953 E Sahara Ave, Ste E-14",89109,36.14228575,-115.1425208,4.5,456,Desserts,Food,Thai,Restaurants,Seafood,,,,,,,,,,
OAEeaLLm_9sHksKJEY0o0w,Napoleon's Piano Bar,"Paris Las Vegas, 3655 Las Vegas Blvd S",89109,36.11252355,-115.1710698,3.5,130,Bars,Nightlife,Wine Bars,Lounges,,,,,,,,,,,
IMLrj2klosTFvPRLv56cng,Honey Salt,1031 S Rampart Blvd,89145,36.160577,-115.292996,4,1005,Restaurants,American (New),Cafes,,,,,,,,,,,,
a0v7Si0DK4cIko7AQY4YXg,Egg Works,6960 S Rainbow Blvd,89118,36.06219401,-115.2418562,4.5,704,Breakfast & Brunch,American (Traditional),Restaurants,,,,,,,,,,,,
_hML_SleB40KkUrMHOZ_-Q,Rx Boiler Room,3930 Las Vegas Blvd,89119,36.09358491,-115.1758973,4,347,Bars,Cocktail Bars,American (New),American (Traditional),Nightlife,Restaurants,,,,,,,,,
M51gw2cz_vXarNBLbKkOxQ,The Cracked Egg,6435 S Rainbow Blvd,89118,36.07204557,-115.2435014,4,426,Breakfast & Brunch,Restaurants,,,,,,,,,,,,,
QpPA4PZ0_jo82gkzMsQpDw,Sterling Spoon Cafe,"Silver Sevens Hotel Casino, 4100 Paradise Rd",89169,36.1139489,-115.1523393,3,106,Restaurants,Cafes,Food,Diners,,,,,,,,,,,
yfMYY2s-qqAqQFMjK6_Ytg,Divine Threading,"5655 Centennial Center Blvd, Ste 140",89149,36.2645451,-115.2574141,4.5,108,Eyelash Service,Beauty & Spas,Event Planning & Services,Henna Artists,Hair Removal,Threading Services,,,,,,,,,
A-uZAD4zP3rRxb44WUGV5w,Soho Japanese Restaurant,"7377 S Jones Blvd, Ste 116",89139,36.0552438,-115.2258702,4.5,1134,Japanese,Restaurants,Sushi Bars,,,,,,,,,,,,
DbEszO3wk1xVmN3pCPob2g,Jamms Restaurant,1029 S Rainbow Blvd,89145,36.159706,-115.245078,4.5,776,American (Traditional),American (New),Restaurants,Breakfast & Brunch,,,,,,,,,,,
zdcesxBdjljRgS0QmCgkBg,Harrie's Bagelmania,"855 E Twain Ave, Ste 120",89109,36.12141581,-115.1449451,4,209,Bagels,Restaurants,Delis,Food,,,,,,,,,,,
c-NXKTJ0jrrusTPxJAUwvA,Red Robin Gourmet Burgers,"10990 Lavender Hill Drive, Building 8B",89135,36.14573362,-115.333382,2.5,177,American (Traditional),Restaurants,Burgers,,,,,,,,,,,,
k-dDZvTeLysoJvjHI-qr9g,Feast Buffet,2411 W Sahara Ave,89102,36.1427819,-115.1747468,3,157,Restaurants,Buffets,,,,,,,,,,,,,
8iZhbQ2kqml7kJbIhrAn6Q,EcoWash Automotive Center,7235 S Rainbow Blvd,89118,36.05742613,-115.2436697,3.5,307,Oil Change Stations,Automotive,Auto Glass Services,Auto Repair,Car Wash,Auto Detailing,,,,,,,,,
NfM1YE-FJCToO1LB36T6lQ,Jason's Deli,7305 Arroyo Crossing Pkwy,89113,36.0629898,-115.2515658,3.5,137,Restaurants,Delis,Salad,,,,,,,,,,,,
gRFfN-UVouI4TvaphjSGLg,Appliance Repair Experts,"3231 North Decatur Blvd, Ste 225",89130,36.2175851,-115.20941,4,103,Home & Garden,Local Services,Appliances,Appliances & Repair,Shopping,,,,,,,,,,
xEH00X_VoRepWKXQrragmw,MOzen Bistro,3752 Las Vegas Blvd S,89158,36.1062631,-115.1742864,4,297,Restaurants,Asian Fusion,Sushi Bars,Japanese,,,,,,,,,,,
l_GV0hgEoTUf70uJVT0_hg,eat.,707 Carson Ave,89101,36.166723,-115.13894,4,1647,American (New),Sandwiches,Breakfast & Brunch,Restaurants,,,,,,,,,,,
aQUo8irLBywAZN26ln_Q1w,WILD,"150 N Las Vegas Blvd, Ste 120",89101,36.1700878,-115.1396153,4,108,Bars,Restaurants,Pizza,American (New),Food,Cocktail Bars,Juice Bars & Smoothies,Nightlife,,,,,,,
CK0s-DTLUb7oYKFsunp2bA,The Gun Store,2900 E Tropicana Ave,89121,36.1005518,-115.1112444,4,350,Gun\/Rifle Ranges,Active Life,,,,,,,,,,,,,
_PQ1cKw_ZtKrXNxCMgIeYA,Jalisco Cantina,6450 S Durango Dr,89113,36.071411,-115.278723,3.5,102,Jazz & Blues,Nightlife,Arts & Entertainment,Mexican,Restaurants,,,,,,,,,,
3Jq5LfJ5fmJ5KmuA6VHmzw,Topgolf,4627 Koval Ln,89109,36.10599603,-115.1647223,3.5,366,American (New),Golf,Active Life,Restaurants,Bars,Nightlife,,,,,,,,,
YTqtM2WFhcMZGeAGA08Cfg,Mariscos Playa Escondida,"1203 E Charleston Blvd, Ste 140",89104,36.159363,-115.135949,4.5,301,Restaurants,Seafood,Specialty Food,Ethnic Food,Mexican,Food,,,,,,,,,
DTz6gFeWmdvSEIFGjXpIgQ,Grinders Pizza Lounge,5625 S Rainbow Blvd,89118,36.0865493,-115.2438663,4,185,Restaurants,Pizza,Food,Desserts,Sandwiches,,,,,,,,,,
iPM8BXV6vEVEci8ttsOObQ,Jenni Pho,7855 S Rainbow Blvd,89139,36.0455949,-115.2435889,3,311,Restaurants,Vietnamese,,,,,,,,,,,,,
vGAJwqvfJLoeHdaM-8eRng,Chili's,6505 N Decatur Blvd,89131,36.2783709,-115.2069617,2.5,157,Nightlife,Tex-Mex,Restaurants,Bars,American (Traditional),,,,,,,,,,
JFNv5sKeKAf1ZVPnfbzpXw,East West Pizzeria,5025 S Fort Apache Rd,89148,36.0979679,-115.2977961,3.5,107,Restaurants,Italian,Food Delivery Services,Chicken Wings,Food,Pizza,,,,,,,,,
2OJrznHaA4Gz_KYbQnAuzQ,Volcano Tea House,"4215 Spring Mountain Rd, Ste B106B",89102,36.1254067,-115.1959414,3.5,335,Coffee & Tea,Bubble Tea,Food,Ice Cream & Frozen Yogurt,,,,,,,,,,,
j5nPiTwWEFr-VsePew7Sjg,Ichiza,4355 Spring Mountain Rd,89102,36.125908,-115.197904,4,1302,Japanese,Restaurants,,,,,,,,,,,,,
zcScEL0WEdFkROcnz5379g,The Boiling Crab,4025 S Decatur Blvd,89103,36.11712817,-115.2085109,4,740,Seafood,Cajun\/Creole,Restaurants,,,,,,,,,,,,
Ta9m6G8P0pA5nuAJomjQqQ,Dreikosen Door Service,3528 Prairie Meadow St,89129,36.22496901,-115.285973,5,216,Home Services,Home Decor,Contractors,Garage Door Services,Shopping,Home & Garden,Door Sales\/Installation,Handyman,,,,,,,
UAMTM6LMA2on079oBMFBPQ,Lazy Joe's Fish & Chips,"7835 S Rainbow Blvd, Ste 22",89139,36.0458007,-115.2440943,3.5,245,Seafood,Gluten-Free,Fish & Chips,Restaurants,Mediterranean,,,,,,,,,,
ccGIAOl08zHt2lcn_UxPfw,Las Vegas Athletic Club,2655 Maryland Pkwy,89109,36.141197,-115.138366,3,287,Fitness & Instruction,Gyms,Active Life,Pilates,,,,,,,,,,,
LYNKKnl4jAiU1-U-97gR5Q,SlotZilla,"Fremont Street Experience, 425 Fremont St",89101,36.1613251,-115.1222504,3.5,229,Ziplining,Active Life,Amusement Parks,,,,,,,,,,,,
awI4hHMfa7H0Xf0-ChU5hg,Oyster Bar,2411 W Sahara Ave,89102,36.14290352,-115.1746185,4.5,1784,Bars,Nightlife,Restaurants,Seafood,,,,,,,,,,,
EWbNTPW0co_X4lZRB-QTLQ,Ocha Thai Cuisine,1201 Las Vegas Blvd S,89104,36.1566896,-115.148347,4,235,Thai,Restaurants,Chinese,,,,,,,,,,,,
#NAME?,Marrakech Mediterranean Restaurant,"3900 Paradise Rd, Ste Y",89169,36.11771172,-115.1546089,4.5,338,Moroccan,Middle Eastern,Restaurants,Lebanese,Mediterranean,,,,,,,,,,
9vG7UBYjYLDNb3VS1EZqEw,Simply Skin Las Vegas,"6670 S Tenaya Way, Ste 190",89113,36.0671343,-115.2510426,5,177,Laser Hair Removal,Hair Removal,Day Spas,Health & Medical,Beauty & Spas,Medical Spas,Skin Care,,,,,,,,
N5CL5HLS6lyltw-OjjBrOw,Hussong's Cantina,"740 S Rampart Blvd, Ste 7",89145,36.16360501,-115.2893741,3.5,212,Restaurants,Nightlife,Vegan,Bars,Mexican,,,,,,,,,,
m-xsH8VkcYtTTvp2Fa6Ajw,Pancho's,11020 Lavender Hills Dr,89135,36.14541768,-115.3342351,3,398,Restaurants,Mexican,,,,,,,,,,,,,
qFZ7ReYNpjHuvSxOqXqHMg,Sumo Sushi 2,"8795 W Warm Springs Rd, Ste 106",89148,36.05520821,-115.2833057,3.5,299,Sushi Bars,Restaurants,,,,,,,,,,,,,
nQD284VfImPe_UXkmq4yaQ,Rumor Boutique Resort,455 E Harmon Ave,89169,36.107386,-115.154112,2.5,563,Event Planning & Services,Hotels,Hotels & Travel,,,,,,,,,,,,
d3zW_b-JWlxMneNn7K9xew,Streets of New York,7570 Norman Rockwell Ln,89131,36.2985157,-115.2799828,3,192,Restaurants,Italian,Sandwiches,Pizza,,,,,,,,,,,
HxGBySw5WIapBu1M8WWcbw,CarMax,6755 West Sahara Ave,89146,36.1432383,-115.2399507,3,138,Automotive,Car Buyers,Used Car Dealers,Car Dealers,,,,,,,,,,,
1FAvxOUOGGyZoYNlAXACag,Dal Toro Ristorante,"Palazzo Hotel, 3325 S Las Vegas Blvd, Ste 200",89109,36.12484206,-115.1456451,2.5,325,Restaurants,Italian,,,,,,,,,,,,,
FfG8twx5K18y268Gp4dSKA,Hooters,7155 S Rainbow Blvd,89118,36.0582206,-115.2436309,2.5,231,American (Traditional),Restaurants,Sports Bars,Chicken Wings,Bars,Nightlife,,,,,,,,,
VWtT4DKxQ4YVRWT88Z5SMA,Sambalatte,"6555 S Jones Blvd, Ste 100",89118,36.06982152,-115.2248722,4,232,Cafes,Food,Coffee & Tea,Restaurants,,,,,,,,,,,
LIU7IcJtD9VieoIo__wd9Q,Thai Pan Cuisine,463 S Decatur Blvd,89107,36.1669449,-115.205034,4.5,118,Restaurants,Thai,,,,,,,,,,,,,
ytk8XVFegCSdSBXLDZutpw,Bachi Kitchen,"6825 W Russell Rd, Ste 115",89118,36.0844749,-115.2412756,3.5,267,Breakfast & Brunch,Asian Fusion,Nightlife,Burgers,Food,Bars,Beer,Wine & Spirits,Restaurants,,,,,,
#NAME?,Rani's World Foods,4505 W Sahara Ave,89102,36.1435825,-115.2014156,4,140,Specialty Food,Restaurants,Vegetarian,Food,Ethnic Food,Grocery,Indian,,,,,,,,
68O4uYCd0YToLOLqHTBSZQ,Jeff Civillico: Comedy In Action,"Flamingo Las Vegas Hotel & Casino, 3555 Las Vegas Blvd S",89109,36.11836826,-115.1722741,5,173,Comedy Clubs,Nightlife,Performing Arts,Arts & Entertainment,Hotels & Travel,,,,,,,,,,
H-WYHSzXPWS9Avj0W6SRpg,The Buffet at Excalibur,"Excalibur Hotel And Casino, 3850 S Las Vegas Blvd",89109,36.098909,-115.175557,2.5,216,Buffets,Breakfast & Brunch,Restaurants,,,,,,,,,,,,
AjWFFZN8KwyqJzzi0DyEsw,BURGER BRASSERIE,"Paris Las Vegas Hotel & Casino, 3655 Las Vegas Boulevard South",89109,36.112648,-115.170283,3.5,548,Restaurants,Burgers,American (Traditional),,,,,,,,,,,,
9fTDeI6mApFX52qYJ8z0mw,Dutch Bros. Coffee,2840 E Tropicana Ave,89121,36.1002631,-115.1119957,4.5,447,Coffee & Tea,Food,,,,,,,,,,,,,
6K59UtSTXt56F4rMo1T4tw,Centennial Toyota,6551 Centennial Center Blvd,89149,36.275771,-115.273577,2.5,238,Auto Parts & Supplies,Automotive,Auto Loan Providers,Financial Services,Car Dealers,Auto Repair,,,,,,,,,
TrN8HBHBL4-Tu7cXMDoopQ,Golden Flower Chinese Cuisine,3315 E Russell Rd,89120,36.0856861,-115.1037793,4,157,Chinese,Restaurants,,,,,,,,,,,,,
aYTiyhUbc6uL7jSAXGKhrA,Gelato Messina,"2010 Festival Park Dr, Ste 130",89135,36.14948078,-115.3328211,4.5,184,Desserts,Ice Cream & Frozen Yogurt,Gelato,Food,,,,,,,,,,,
nJUsNx-LKAZ0FHGm9mnmaw,Regal Cinemas Downtown Summerlin 5,2070 Park Center Drive,89135,36.1483144,-115.3327272,4,169,Arts & Entertainment,Cinema,,,,,,,,,,,,,
9PIC380tmNYpIC3z5cvcNA,Is Sweet,"5288 Spring Mountain Rd, Ste 101",89146,36.1265291,-115.2132639,4,326,Cafes,Food,Restaurants,Desserts,Coffee & Tea,,,,,,,,,,
FykLjv4tIq618q8F2pvTKg,Krazy Buffet,3131 N Rainbow Blvd,89108,36.2174113,-115.2427036,3,139,Buffets,Chinese,Chicken Wings,Restaurants,,,,,,,,,,,
99kGGQoig4YaRi-52VtqMA,Tropical Smoothie Cafe,"6555 S Jones Blvd, Ste 110",89118,36.0698514,-115.2249867,2,110,Food,Juice Bars & Smoothies,Sandwiches,Restaurants,,,,,,,,,,,
aQ222ydz_GSRZV66xNt4kQ,Sen of Japan,"8480 W Desert Inn Rd, Ste F1",89117,36.1298813,-115.276416,4.5,396,Japanese,Restaurants,Sushi Bars,,,,,,,,,,,,
ow5ku7hfMqU94mylTd3WlQ,Vivido Gelato,"1000 S Rampart Blvd, Ste 15",89145,36.1604696,-115.2898892,4,117,Gelato,Food,Desserts,Ice Cream & Frozen Yogurt,Coffee & Tea,,,,,,,,,,
dGuVYsA5DMCm_TjSbX6x7g,Windy City Beefs N Pizza,9711 S Eastern Ave,89183,36.01249907,-115.1195256,4,342,Hot Dogs,Pizza,Restaurants,,,,,,,,,,,,
rq5dgoksPHkJwJNQKlGQ7w,Sambalatte Torrefazione,"750 S Rampart Blvd, Ste 9",89145,36.16418023,-115.2896297,4,704,Restaurants,Food,American (New),Breakfast & Brunch,Cafes,Coffee & Tea,,,,,,,,,
uBCRRQJ4ukFaE_UyY6T1uQ,China Grill,"Mandalay Bay Hotel and Casino, 3950 Las Vegas Blvd S",89119,36.09226829,-115.1764369,3.5,131,Restaurants,Chinese,,,,,,,,,,,,,
kXxSkjIByGp4X6-FIO8_Qw,The Diner at LVM Resort,8175 Arville St,89139,36.04089797,-115.1996833,4.5,112,American (Traditional),Breakfast & Brunch,Restaurants,Diners,,,,,,,,,,,
9Rs7n2LbINBN8kLbScjhmA,The CrÌ»pe,"420 S Rampart Blvd, Ste 150",89145,36.1671901,-115.2855925,3.5,179,Music Venues,Food Trucks,Caterers,Food Delivery Services,Cafes,Food,Breakfast & Brunch,Creperies,Juice Bars & Smoothies,Restaurants,Vegetarian,Nightlife,Event Planning & Services,Arts & Entertainment,Desserts
3LWsVfsSmb_Nzbi2YQ-NIA,Delhi Indian Cuisine,4022 S Maryland Pkwy,89119,36.11616416,-115.1360921,4,486,Halal,Vegetarian,Indian,Restaurants,Buffets,Food Delivery Services,Food,,,,,,,,
zlWxr92l1zCLc81SeqlXtA,Sprouts Farmers Market,4020 S Rainbow Blvd,89103,36.11533449,-115.2413122,4,138,Specialty Food,Fruits & Veggies,Shopping,Farmers Market,Health Markets,Personal Shopping,Food,Grocery,,,,,,,
BI3kK6a6ko6yfz9TviQ7Aw,Fortune Hotel & Suites,325 E Flamingo Rd,89169,36.11334,-115.158088,2,115,Hotels,Hotels & Travel,Event Planning & Services,,,,,,,,,,,,
Ums3gaP2qM3W1XcA5r6SsQ,Braddah's Island Style,6410 N Durango Dr,89149,36.27761365,-115.2870446,4,259,Asian Fusion,Food,Hawaiian,Mexican,Desserts,Restaurants,,,,,,,,,
TCWMgOiV0PxQkWE1SyBIWQ,Nobu,"Hard Rock Hotel & Casino, 4455 Paradise Rd",89169,36.10916361,-115.1534933,4,890,Restaurants,Sushi Bars,Japanese,,,,,,,,,,,,
ciDXNLbcwI7qt5guNKZPIw,Jersey Boys,"The Palazzo, 3325 Las Vegas Blvd S",89109,36.1407035,-115.1823137,4.5,194,Arts & Entertainment,Performing Arts,,,,,,,,,,,,,
dcqHjnmKPDdOseYEo6SdAw,The Shops at Crystals,3720 S Las Vegas Blvd,89158,36.10788944,-115.1744628,3.5,301,Jewelry,Shopping,Shopping Centers,,,,,,,,,,,,
16tWXenJ1wTqugXJU7yiZg,808 Sushi,7435 S Durango Dr,89113,36.0529956,-115.2799348,3.5,408,Sushi Bars,Restaurants,Food,Desserts,,,,,,,,,,,
FsbzGuFBMVV99T2otrfsmA,ChillSpot by SasaSweets,"707 E Fremont St, Ste 1300",89101,36.16752618,-115.138435,4.5,126,Desserts,Shaved Ice,Ice Cream & Frozen Yogurt,Food,,,,,,,,,,,
mmbXj7CmjGbH-wR3j6cD0w,Sweet Tomatoes,"9460 W Flamingo Rd, Ste 100",89147,36.1152681,-115.298302,3.5,234,Vegetarian,Salad,Soup,Restaurants,Buffets,,,,,,,,,,
ostVuyoxxQiP3Qik_L7nPA,BJ's Restaurant & Brewhouse,5881 Centennial Center Blvd,89149,36.269812,-115.261465,3,358,American (New),Food,Breweries,Restaurants,Pizza,,,,,,,,,,
RCdWzJI0acxponN70QDRcw,Delano Las Vegas,3940 Las Vegas Blvd S,89119,36.090182,-115.176807,3,415,Hotels,Hotels & Travel,Event Planning & Services,,,,,,,,,,,,
OFw59czUoeeosFMKfRawmg,Gordon Biersch Brewery Restaurant,3987 Paradise Rd,89169,36.1170027,-115.1552488,3.5,300,Bars,Breweries,American (New),Restaurants,Food,Nightlife,,,,,,,,,
bCYZD_C3ZJLXPnKBc0sAUw,Jim Marsh Kia,8555 W Centennial Pkwy,89149,36.2772607,-115.2812019,3,158,Car Dealers,Auto Repair,Automotive,,,,,,,,,,,,
hihud--QRriCYZw1zZvW4g,Gangnam Asian BBQ Dining,4480 Paradise Rd,89169,36.108898,-115.151261,4.5,4120,Korean,Japanese,Restaurants,Tapas\/Small Plates,Asian Fusion,Barbeque,,,,,,,,,
vOfz55MmWgjNQ3BA2PnhgQ,Marilyn's Cafe,"The Tuscany Suites & Casino, 255 E Flamingo Rd",89169,36.11343671,-115.1595068,4,474,American (Traditional),Restaurants,,,,,,,,,,,,,
1yWINuTOUBQj8ELqRNDOWA,Gelato Bar,3849 Spring Mountain Rd,89102,36.1265013,-115.1912003,4.5,347,Food,Gelato,Desserts,Coffee & Tea,,,,,,,,,,,
HVFKw_1abKVGYscxYKlKYA,Al's Beef,6840 W Sahara Ave,89146,36.14463432,-115.2415717,3.5,163,Hot Dogs,Sandwiches,Italian,Restaurants,,,,,,,,,,,
_sh6mIBWZis66mAjkjN8Qg,Rachel's Kitchen,9691 Trailwood Dr,89134,36.1909406,-115.3072017,3.5,209,American (Traditional),Breakfast & Brunch,Juice Bars & Smoothies,Sandwiches,Food,American (New),Restaurants,,,,,,,,
vx4YAA02Qz6khRD1fZ1MFA,Ping Pang Pong,"Gold Coast Hotel & Casino, 4000 W Flamingo Rd",89103,36.11530883,-115.1952016,3.5,697,Restaurants,Dim Sum,Seafood,Cantonese,Chinese,,,,,,,,,,
#NAME?,Tequila Bar and Grill,"Bally's Hotel and Casino, 3645 Las Vegas Blvd S",89136,36.11599166,-115.171309,3.5,167,Bars,Restaurants,Nightlife,Mexican,,,,,,,,,,,
WlBvw6R1Qe2yIaZp-2ilZA,Toros Cantina & Gaming,11760 W Charleston Blvd,89138,36.15948327,-115.3516784,3.5,236,Restaurants,Tapas Bars,American (New),Mexican,Shopping,Books,Mags,Music & Video,Videos & Video Game Rental,,,,,,
pFQaji0idkrzv5J-qTQ82Q,Golden Corral,1455 S Lamb Blvd,89104,36.1550616,-115.0827729,3,569,Restaurants,Buffets,American (Traditional),,,,,,,,,,,,
kd1VNJdd92T2eQ4hqvYQ5A,Above the Crust,7810 W Ann Rd,89149,36.2638786,-115.2659113,4,158,Chicken Wings,Pizza,Restaurants,Salad,,,,,,,,,,,
DkZnIPTPce-R2uoF-euYyQ,DT's Filipino Food,7320 S Rainbow Blvd,89118,36.0553574,-115.2414974,2.5,211,Restaurants,Barbeque,Filipino,American (New),,,,,,,,,,,
rvnTFEq7R2ZHg0_CYbBNFw,Village Seafood Buffet,"Rio All-Suite Hotel & Casino, 3700 W. Flamingo Road",89103,36.118117,-115.187298,3.5,823,Seafood,Buffets,Restaurants,,,,,,,,,,,,
hJkGfdNlHTfqFTeZ1xkjrw,Design & Dine,"7250 S Durango Dr, Ste 120",89148,36.05658,-115.278506,4.5,101,Wine Bars,Restaurants,Paint & Sip,Event Planning & Services,Bars,Nightlife,Party & Event Planning,American (New),Arts & Entertainment,,,,,,
gRCEObNuHtI61xR32ytqNQ,Palace Station Hotel & Casino,2411 W Sahara Ave,89102,36.1427819,-115.1747468,2.5,560,Hotels & Travel,Casinos,Restaurants,Event Planning & Services,Arts & Entertainment,Hotels,,,,,,,,,
yGd87bkFijZ6YHrHtW5maA,Basil Thai Fusion,4341 N Rancho Dr,89130,36.23778173,-115.231437,3.5,110,Thai,Restaurants,Italian,American (New),,,,,,,,,,,
lAR6Lj6-zBxQNqflZt0zTQ,Buca di Beppo Italian Restaurant,412 E Flamingo Rd,89169,36.11495536,-115.1518661,3,287,Restaurants,Italian,Caterers,Event Planning & Services,Food,Pizza,,,,,,,,,
rsGqm4UHTp4NB4sr9ca1YA,Oasis Moving and Storage,2915 Coleman St,89032,36.2122694,-115.176012,1,106,Home Services,Movers,Self Storage,Local Services,,,,,,,,,,,
makqSKZaz1aUipoWBW0BsA,"The Westin Las Vegas Hotel, Casino & Spa",160 East Flamingo Rd,89109,36.1152191,-115.165739,3,507,Hotels,Event Planning & Services,Arts & Entertainment,Casinos,Restaurants,Hotels & Travel,,,,,,,,,
owLXnEhlMLsFpemYoOxNkg,Tuscany Hotel & Casino,255 E Flamingo Rd,89169,36.1133965,-115.1600873,3.5,532,Event Planning & Services,Casinos,Arts & Entertainment,Hotels & Travel,Hotels,,,,,,,,,,
OPxWcHK96_cbmiF7legDnA,McCormick & Schmick's Seafood & Steaks,335 Hughes Center Dr,89169,36.11507549,-115.1569413,3.5,218,Seafood,Restaurants,American (Traditional),Steakhouses,,,,,,,,,,,
PRBSiB7ytkLKHVZoBYPxpQ,Kusina Ni Lorraine,3507 S Maryland Pkwy,89169,36.1262983,-115.1376254,3.5,134,Restaurants,Buffets,Filipino,,,,,,,,,,,,
Jy6ru0Hz-9Yc5v006-YmUQ,Fruits and Roots,"7885 W Sunset Rd, Ste 180",89113,36.0702141,-115.2620348,4.5,157,Juice Bars & Smoothies,Specialty Food,Food,Organic Stores,Gluten-Free,Restaurants,Vegan,,,,,,,,
p5PRvPUhJrA-QHhm5xOU7Q,Philly Steak Express,6446 N Durango Rd,89149,36.27809,-115.28715,3.5,146,Pizza,Sandwiches,Salad,Burgers,Restaurants,,,,,,,,,,
UpW3jyJ3_kTG7oDSflwnMA,Archi's Thai Kitchen,6360 W Flamingo Rd,89103,36.1148157,-115.2309704,4,332,Restaurants,Thai,,,,,,,,,,,,,
8wt-saX_qXaqVCXQHc5qXw,Sporting Life Bar,7770 S Jones Blvd,89139,36.048195,-115.224919,4,153,Pubs,American (New),Restaurants,Gastropubs,Sports Bars,Nightlife,Bars,,,,,,,,
Wg9272hxpu9IBTXMTB6EeQ,Chili's,7335 Arroyo Crossing Pkwy,89113,36.06275709,-115.2524231,2.5,155,Tex-Mex,Bars,Nightlife,American (New),American (Traditional),Restaurants,,,,,,,,,
nEAoUNf1HrXAWidrwocozg,Vanity Nightclub,4455 Paradise Rd,89169,36.1100828,-115.1538714,3,197,Dance Clubs,Nightlife,Lounges,Bars,,,,,,,,,,,
yGqvmPtlFZMPhLBlNQyggg,Maui Rose Hawaiian BBQ,"2600 W Sahara Ave, Ste 101",89102,36.1452198,-115.1766512,4,133,Restaurants,Hawaiian,,,,,,,,,,,,,
3rj1qpgFvkRWtAka17mhEQ,Mimi's Cafe,6760 N Durango Dr,89149,36.28286913,-115.2871548,3,169,Breakfast & Brunch,Restaurants,Cafes,American (Traditional),,,,,,,,,,,
B0Vm2tge4I2JJlZhD4sl0Q,35 Steaks + Martinis,"Hard Rock Hotel & Casino, 4455 Paradise Rd",89169,36.1102226,-115.155311,4,173,Restaurants,Steakhouses,,,,,,,,,,,,,
T-eEjmbEeQ53ezioW_9vxQ,Phil's Italian Steak House,3300 Las Vegas Blvd S,89136,36.124571,-115.1724277,3,116,Restaurants,Nightlife,Bars,Steakhouses,,,,,,,,,,,
DESv2ys6SjBKA4SyDtJvxw,Ferraro's Italian Restaurant & Wine Bar,4480 Paradise Rd,89169,36.10919834,-115.1519554,4,642,Wine Bars,Restaurants,Italian,Nightlife,Food,Bars,,,,,,,,,
8A8-xCeCZ3mKcpYT_P8_qQ,A Robert Cromeans Salon,"Mandalay Bay, 3950 Las Vegas Blvd S, Beach Level",89119,36.231812,-115.067739,4.5,113,Hair Salons,Beauty & Spas,,,,,,,,,,,,,
JJAwT9R6Fp2yyWHtWFA8uQ,Sushi Way,"3900 Paradise Rd, Ste B",89169,36.118841,-115.154483,4.5,615,Sushi Bars,Japanese,Asian Fusion,Restaurants,Salad,,,,,,,,,,
Apkr-qykgpUI5ltIw7B-7Q,Stake Out Bar & Grill,4800 S Maryland Pkwy,89119,36.1027088,-115.1363023,4,100,Nightlife,Bars,American (New),Restaurants,Sports Bars,Pubs,,,,,,,,,
zlHSnkKKZLtkaX9CljvryA,Firefly,"The Plaza, 1 Main St",89101,36.17116998,-115.1260876,4,120,Tapas Bars,Restaurants,,,,,,,,,,,,,
po0p6NIro0cDrmKkcyPy0w,To See Roll,"7040 S Rainbow Blvd, Ste 110",89113,36.0605553,-115.2417218,4.5,217,Restaurants,Japanese,Food,Poke,Sushi Bars,Hawaiian,,,,,,,,,
eiTWTVThkHr-DKXxIysbgA,Sweet PokÌ©,"7965 S Rainbow Blvd, Ste 135",89139,36.0433621,-115.2434483,4.5,172,Poke,Restaurants,Hawaiian,Asian Fusion,Japanese,Food,,,,,,,,,
fQt9QVAZM9PM0wFDdROvWw,Frankie's Tiki Room,1712 W Charleston Blvd,89102,36.1591684,-115.1646372,4.5,704,Bars,Tiki Bars,Nightlife,,,,,,,,,,,,
a2JgQgEGm5hMDEhryhMMJg,VEGAS! The Show,"3663 Las Vegas Blvd S, Ste 454",89109,36.110975,-115.172145,4.5,240,Arts & Entertainment,Performing Arts,,,,,,,,,,,,,
2bK1ng2mnRdtTh_BDNGmIg,North End Pizza,6440 N Durango Dr,89149,36.2777222,-115.2863093,3,274,Italian,Pizza,Restaurants,,,,,,,,,,,,
Rd11Bosr8JkfoUhZLzpuxg,The Capital Grille,3200 Las Vegas Blvd S,89109,36.12764837,-115.168328,4.5,521,Nightlife,Bars,Steakhouses,American (Traditional),Seafood,Wine Bars,Restaurants,,,,,,,,
w8pbtr9dLq7RENGYXvldMA,Fizz Las Vegas,"Caesars Palace Las Vegas Hotel & Casino, 3570 Las Vegas Boulevard South",89109,36.1161559,-115.1750576,4,184,Adult Entertainment,Nightlife,Bars,Cocktail Bars,,,,,,,,,,,
SqxIx0KbTmCvUlOfkjamew,Thai Style Noodle House,2267 N Rampart Blvd,89134,36.201845,-115.282141,4,254,Restaurants,Vegan,Thai,,,,,,,,,,,,
LZSyWy4IHgXg6QhW2jrBlw,Romano's Macaroni Grill,2400 W. Sahara Ave.,89102,36.1447171,-115.175034,3,105,Restaurants,Italian,,,,,,,,,,,,,
9cw870n3gsGikVoOT5YOYg,Pier 215,"7060 S Durango Dr, Ste 101",89113,36.06092286,-115.2773718,4.5,312,Restaurants,Sushi Bars,Seafood,American (New),American (Traditional),Asian Fusion,Japanese,,,,,,,,
VmVTDmlLZdwoRVTJO4niaQ,Jin Mee Korean BBQ Restaurant,"953 E Sahara Ave, Ste E9",89136,36.143672,-115.1409598,3.5,116,Barbeque,Restaurants,Korean,,,,,,,,,,,,
95CCHowiE0W_ovv5-9lQAQ,Fat Boy,"4425 Stewart St, Ste 107",89110,36.1670439,-115.0801061,4.5,209,Restaurants,Pizza,Mexican,Burgers,,,,,,,,,,,
dVhGY-mNwTWQzK01Zxuclw,Yunnan Garden,3934 Schiff Dr,89103,36.1249257,-115.1923226,3.5,249,Szechuan,Chinese,Restaurants,Noodles,,,,,,,,,,,
YILyHegzhy1vlc_LNVfObw,Bottiglia Cucina & Enoteca,2300 Paseo Verde Pkwy,89052,36.020696,-115.0901928,4.5,240,Bars,Nightlife,Italian,Restaurants,Wine Bars,,,,,,,,,,
TeHB4-F_5Mwg1VE2Uzu0Ag,Buca di Beppo Italian Restaurant,3850 Las Vegas Blvd S,89109,36.09898453,-115.1750461,3,311,Food,Restaurants,Pizza,Caterers,Italian,Event Planning & Services,,,,,,,,,
KPV_FVNWkgmYh1ArVlt6kg,Lagasse's Stadium,"The Palazzo, 3325 Las Vegas Blvd S",89109,36.12315113,-115.170309,3,503,Nightlife,Bars,Sports Bars,,,,,,,,,,,,
Dxaz8OxaadecnWol18kAtw,Yellowtail,"Bellagio Las Vegas, 3600 S Las Vegas Blvd",89109,36.11199,-115.177001,3.5,722,Japanese,Restaurants,Food,Beer,Wine & Spirits,Steakhouses,,,,,,,,,
9lqPRnnxUA47dacFK9lhtQ,Va Bene CaffÌ¬,"The Cosmopolitan Of Las Vegas, 3708 Las Vegas Blvd S",89109,36.10956362,-115.1742197,3.5,183,Cafes,Coffee & Tea,Food,Restaurants,Desserts,,,,,,,,,,
